{"events": [{"title": "THIEF", "url": "https://www.dailyrecord.co.uk/news/scottish-news/harrowing-bodycam-footage-shows-crazed-36819911", "tone": -13.1, "date": "2026-03-05", "country": "UK", "geo": "Arbroath, Angus, United Kingdom", "lat": 56.55, "lng": -2.583, "type": "POLITICAL", "mentions": 4}, {"title": "THIEF", "url": "https://www.dailyrecord.co.uk/news/scottish-news/harrowing-bodycam-footage-shows-crazed-36819911", "tone": -12.0, "date": "2026-03-05", "country": "UK", "geo": "Edinburgh, Edinburgh, City of, United Kingdom", "lat": 55.95, "lng": -3.2, "type": "POLITICAL", "mentions": 16}, {"title": " \u2014 UNITED KINGDOM", "url": "https://www.dailymail.co.uk/news/article-15617255/thug-guilty-murder-deaf-accountant.html", "tone": -11.4, "date": "2025-03-05", "country": "UK", "geo": "Stoke Newington, Hackney, United Kingdom", "lat": 51.567, "lng": -0.083, "type": "CONFLICT", "mentions": 2}, {"title": " \u2014 UNITED KINGDOM", "url": "https://www.dailymail.co.uk/news/article-15617255/thug-guilty-murder-deaf-accountant.html", "tone": -11.4, "date": "2025-03-05", "country": "UK", "geo": "Stoke Newington, Hackney, United Kingdom", "lat": 51.567, "lng": -0.083, "type": "CONFLICT", "mentions": 2}, {"title": "POLICE", "url": "https://www.dailymail.co.uk/news/article-15617255/thug-guilty-murder-deaf-accountant.html", "tone": -11.4, "date": "2026-03-05", "country": "UK", "geo": "Stoke Newington, Hackney, United Kingdom", "lat": 51.567, "lng": -0.083, "type": "POLITICAL", "mentions": 4}, {"title": "SCOTLAND", "url": "https://www.dailymail.co.uk/news/article-15617255/thug-guilty-murder-deaf-accountant.html", "tone": -11.4, "date": "2026-03-05", "country": "UK", "geo": "Stoke Newington, Hackney, United Kingdom", "lat": 51.567, "lng": -0.083, "type": "POLITICAL", "mentions": 4}, {"title": " \u2014 SHOPLIFTER", "url": "https://www.dailyrecord.co.uk/news/scottish-news/shoplifter-who-killed-asda-security-36820524", "tone": -11.3, "date": "2026-03-05", "country": "UK", "geo": "Edinburgh, Edinburgh, City of, United Kingdom", "lat": 55.95, "lng": -3.2, "type": "CONFLICT", "mentions": 12}, {"title": "SHOPLIFTER \u2014 UNITED KINGDOM", "url": "https://www.dailyrecord.co.uk/news/scottish-news/shoplifter-who-killed-asda-security-36820524", "tone": -11.3, "date": "2026-03-05", "country": "UK", "geo": "Edinburgh, Edinburgh, City of, United Kingdom", "lat": 55.95, "lng": -3.2, "type": "CONFLICT", "mentions": 8}, {"title": "UNITED KINGDOM", "url": "https://www.dailyrecord.co.uk/news/scottish-news/shoplifter-who-killed-asda-security-36820524", "tone": -11.3, "date": "2026-03-05", "country": "UK", "geo": "Edinburgh, Edinburgh, City of, United Kingdom", "lat": 55.95, "lng": -3.2, "type": "CONFLICT", "mentions": 4}, {"title": " \u2014 HOSPITAL", "url": "https://www.rediff.com/news/report/5minors-held-in-delhi-taxi-driver-stabbing/20260305.htm", "tone": -11.2, "date": "2026-03-05", "country": "IN", "geo": "Karala, India (general), India", "lat": 26.517, "lng": 88.733, "type": "POLITICAL", "mentions": 5}, {"title": "VILLAGE \u2014 POLICE", "url": "https://www.rediff.com/news/report/5youth-arrested-for-aunts-murder-in-meerut/20260305.htm", "tone": -10.9, "date": "2026-03-05", "country": "IN", "geo": "Ganeshpur, Uttar Pradesh, India", "lat": 27.083, "lng": 81.467, "type": "CONFLICT", "mentions": 5}, {"title": " \u2014 UNITED KINGDOM", "url": "https://www.dailyrecord.co.uk/news/scottish-news/gangland-thug-snared-over-machete-36821082", "tone": -10.7, "date": "2026-03-05", "country": "UK", "geo": "Edinburgh, Edinburgh, City of, United Kingdom", "lat": 55.95, "lng": -3.2, "type": "CONFLICT", "mentions": 8}, {"title": "BANK", "url": "https://www.dailyrecord.co.uk/news/scottish-news/gangland-thug-snared-over-machete-36821082", "tone": -10.1, "date": "2025-03-05", "country": "UK", "geo": "Edinburgh, Edinburgh, City of, United Kingdom", "lat": 55.95, "lng": -3.2, "type": "POLITICAL", "mentions": 6}, {"title": "BANK", "url": "https://www.dailyrecord.co.uk/news/scottish-news/gangland-thug-snared-over-machete-36821082", "tone": -10.1, "date": "2025-03-05", "country": "UK", "geo": "Glasgow, Glasgow City, United Kingdom", "lat": 55.833, "lng": -4.25, "type": "POLITICAL", "mentions": 2}, {"title": "BANK", "url": "https://www.dailyrecord.co.uk/news/scottish-news/gangland-thug-snared-over-machete-36821082", "tone": -10.1, "date": "2025-03-05", "country": "UK", "geo": "Glasgow, Glasgow City, United Kingdom", "lat": 55.833, "lng": -4.25, "type": "POLITICAL", "mentions": 2}, {"title": " \u2014 GLASGOW", "url": "https://www.dailyrecord.co.uk/news/scottish-news/gangland-thug-snared-over-machete-36821082", "tone": -10.1, "date": "2026-03-05", "country": "UK", "geo": "Glasgow, Glasgow City, United Kingdom", "lat": 55.833, "lng": -4.25, "type": "CONFLICT", "mentions": 1}, {"title": " \u2014 SCOTLAND", "url": "https://www.dailyrecord.co.uk/news/scottish-news/gangland-thug-snared-over-machete-36821082", "tone": -10.1, "date": "2026-03-05", "country": "UK", "geo": "Edinburgh, Edinburgh, City of, United Kingdom", "lat": 55.95, "lng": -3.2, "type": "CONFLICT", "mentions": 2}, {"title": "DUBAI \u2014 MCGILL", "url": "https://www.dailyrecord.co.uk/news/scottish-news/gangland-thug-snared-over-machete-36821082", "tone": -10.1, "date": "2026-03-05", "country": "AE", "geo": "Dubai, Dubayy, United Arab Emirates", "lat": 25.252, "lng": 55.28, "type": "CONFLICT", "mentions": 6}, {"title": "DUBAI \u2014 UNITED KINGDOM", "url": "https://www.dailyrecord.co.uk/news/scottish-news/gangland-thug-snared-over-machete-36821082", "tone": -10.1, "date": "2026-03-05", "country": "AE", "geo": "Dubai, Dubayy, United Arab Emirates", "lat": 25.252, "lng": 55.28, "type": "CONFLICT", "mentions": 2}, {"title": "DUBAI \u2014 UNITED KINGDOM", "url": "https://www.dailyrecord.co.uk/news/scottish-news/gangland-thug-snared-over-machete-36821082", "tone": -10.1, "date": "2026-03-05", "country": "SP", "geo": "Spain", "lat": 40.0, "lng": -4.0, "type": "CONFLICT", "mentions": 2}, {"title": "PRISON", "url": "https://www.middleeasteye.net/news/families-iranian-political-prisoners-fearful-bombs-starvation-and-secret-executions", "tone": -10.1, "date": "2026-03-05", "country": "IR", "geo": "Zanjan, Zanjan, Iran", "lat": 36.674, "lng": 48.479, "type": "POLITICAL", "mentions": 2}, {"title": "PRISON", "url": "https://www.middleeasteye.net/news/families-iranian-political-prisoners-fearful-bombs-starvation-and-secret-executions", "tone": -10.1, "date": "2026-03-05", "country": "IR", "geo": "Sheiban, Sistan va Baluchestan, Iran", "lat": 27.392, "lng": 60.815, "type": "CONFLICT", "mentions": 1}, {"title": "PRISON \u2014 CIVILIAN", "url": "https://www.middleeasteye.net/news/families-iranian-political-prisoners-fearful-bombs-starvation-and-secret-executions", "tone": -10.1, "date": "2026-03-05", "country": "OS", "geo": "Caspian Sea, Oceans (general), Oceans", "lat": 42.0, "lng": 50.0, "type": "POLITICAL", "mentions": 6}, {"title": "PRISON \u2014 CIVILIAN", "url": "https://www.middleeasteye.net/news/families-iranian-political-prisoners-fearful-bombs-starvation-and-secret-executions", "tone": -10.1, "date": "2026-03-05", "country": "IR", "geo": "Zanjan, Zanjan, Iran", "lat": 36.674, "lng": 48.479, "type": "POLITICAL", "mentions": 4}, {"title": "GANG \u2014 SCOTLAND", "url": "https://www.dailyrecord.co.uk/news/scottish-news/gangland-thug-snared-over-machete-36821082", "tone": -10.1, "date": "2026-03-05", "country": "UK", "geo": "East Kilbride, South Lanarkshire, United Kingdom", "lat": 55.767, "lng": -4.167, "type": "CONFLICT", "mentions": 6}, {"title": "SPANISH", "url": "https://www.dailyrecord.co.uk/news/scottish-news/gangland-thug-snared-over-machete-36821082", "tone": -10.1, "date": "2026-03-05", "country": "UK", "geo": "East Kilbride, South Lanarkshire, United Kingdom", "lat": 55.767, "lng": -4.167, "type": "POLITICAL", "mentions": 1}, {"title": "SPAIN \u2014 LYON", "url": "https://www.dailyrecord.co.uk/news/scottish-news/gangland-thug-snared-over-machete-36821082", "tone": -10.1, "date": "2026-03-05", "country": "SP", "geo": "Spain", "lat": 40.0, "lng": -4.0, "type": "CONFLICT", "mentions": 1}, {"title": "SPAIN \u2014 LYON", "url": "https://www.dailyrecord.co.uk/news/scottish-news/gangland-thug-snared-over-machete-36821082", "tone": -10.1, "date": "2026-03-05", "country": "SP", "geo": "Spain", "lat": 40.0, "lng": -4.0, "type": "CONFLICT", "mentions": 2}, {"title": "SPANISH \u2014 UNITED KINGDOM", "url": "https://www.dailyrecord.co.uk/news/scottish-news/gangland-thug-snared-over-machete-36821082", "tone": -10.1, "date": "2026-03-05", "country": "UK", "geo": "East Kilbride, South Lanarkshire, United Kingdom", "lat": 55.767, "lng": -4.167, "type": "POLITICAL", "mentions": 1}, {"title": "SPANISH \u2014 UNITED KINGDOM", "url": "https://www.dailyrecord.co.uk/news/scottish-news/gangland-thug-snared-over-machete-36821082", "tone": -10.1, "date": "2026-03-05", "country": "SP", "geo": "Spain", "lat": 40.0, "lng": -4.0, "type": "POLITICAL", "mentions": 1}, {"title": "UNITED KINGDOM \u2014 SCOTLAND", "url": "https://www.dailyrecord.co.uk/news/scottish-news/gangland-thug-snared-over-machete-36821082", "tone": -10.1, "date": "2026-03-05", "country": "UK", "geo": "Edinburgh, Edinburgh, City of, United Kingdom", "lat": 55.95, "lng": -3.2, "type": "CONFLICT", "mentions": 2}, {"title": "POLICE", "url": "https://www.rediff.com/news/report/5man-fires-shots-after-delhi-road-rage-incident/20260305.htm", "tone": -9.6, "date": "2026-03-05", "country": "IN", "geo": "Delhi, Delhi, India", "lat": 28.667, "lng": 77.217, "type": "POLITICAL", "mentions": 10}, {"title": "CANADA", "url": "https://www.cbc.ca/news/canada/british-columbia/ruffian-extortion-sandhu-deportation-cbsa-9.7111881", "tone": -9.4, "date": "2026-03-05", "country": "IN", "geo": "Delhi, Delhi, India", "lat": 28.667, "lng": 77.217, "type": "POLITICAL", "mentions": 2}, {"title": "POLICE \u2014 AUTHORITIES", "url": "https://www.cbc.ca/news/canada/british-columbia/ruffian-extortion-sandhu-deportation-cbsa-9.7111881", "tone": -9.4, "date": "2026-03-05", "country": "IN", "geo": "Delhi, Delhi, India", "lat": 28.667, "lng": 77.217, "type": "POLITICAL", "mentions": 3}, {"title": " \u2014 APPEALS COURT", "url": "https://www.lemonde.fr/en/police-and-justice/article/2026/03/05/french-policeman-to-be-tried-over-2023-killing-of-teen-during-traffic-stop_6751122_105.html", "tone": -9.0, "date": "2026-03-05", "country": "FR", "geo": "Paris, France (general), France", "lat": 48.867, "lng": 2.333, "type": "POLITICAL", "mentions": 3}, {"title": " \u2014 APPEALS COURT", "url": "https://www.lemonde.fr/en/police-and-justice/article/2026/03/05/french-policeman-to-be-tried-over-2023-killing-of-teen-during-traffic-stop_6751122_105.html", "tone": -9.0, "date": "2026-03-05", "country": "FR", "geo": "Paris, France (general), France", "lat": 48.867, "lng": 2.333, "type": "POLITICAL", "mentions": 3}, {"title": "MIGRANT WORKER \u2014 PARIS", "url": "https://www.lemonde.fr/en/police-and-justice/article/2026/03/05/french-policeman-to-be-tried-over-2023-killing-of-teen-during-traffic-stop_6751122_105.html", "tone": -9.0, "date": "2026-03-05", "country": "FR", "geo": "Paris, France (general), France", "lat": 48.867, "lng": 2.333, "type": "POLITICAL", "mentions": 6}, {"title": "FRANCE \u2014 APPEALS COURT", "url": "https://www.lemonde.fr/en/police-and-justice/article/2026/03/05/french-policeman-to-be-tried-over-2023-killing-of-teen-during-traffic-stop_6751122_105.html", "tone": -9.0, "date": "2026-03-05", "country": "FR", "geo": "Paris, France (general), France", "lat": 48.867, "lng": 2.333, "type": "POLITICAL", "mentions": 1}, {"title": "FRANCE \u2014 ATTORNEY", "url": "https://www.lemonde.fr/en/police-and-justice/article/2026/03/05/french-policeman-to-be-tried-over-2023-killing-of-teen-during-traffic-stop_6751122_105.html", "tone": -9.0, "date": "2026-03-05", "country": "FR", "geo": "Paris, France (general), France", "lat": 48.867, "lng": 2.333, "type": "POLITICAL", "mentions": 1}, {"title": "FRANCE \u2014 ATTORNEY", "url": "https://www.lemonde.fr/en/police-and-justice/article/2026/03/05/french-policeman-to-be-tried-over-2023-killing-of-teen-during-traffic-stop_6751122_105.html", "tone": -9.0, "date": "2026-03-05", "country": "MR", "geo": "Mauritania", "lat": 20.0, "lng": -12.0, "type": "POLITICAL", "mentions": 1}, {"title": "FRANCE \u2014 APPEALS COURT", "url": "https://www.lemonde.fr/en/police-and-justice/article/2026/03/05/french-policeman-to-be-tried-over-2023-killing-of-teen-during-traffic-stop_6751122_105.html", "tone": -9.0, "date": "2026-03-05", "country": "MR", "geo": "Mauritania", "lat": 20.0, "lng": -12.0, "type": "POLITICAL", "mentions": 1}, {"title": "NEIGHBORHOOD \u2014 CHICAGO", "url": "https://www.fox32chicago.com/news/humboldt-park-fight-shooting", "tone": -8.6, "date": "2026-03-05", "country": "US", "geo": "Chicago, Illinois, United States", "lat": 41.85, "lng": -87.65, "type": "CONFLICT", "mentions": 10}, {"title": " \u2014 POLICE", "url": "https://www.themorningsun.com/2026/03/05/nyc-homeless-man-sleeping-outside-penn-station-set-on-fire-by-3-young-men/", "tone": -7.5, "date": "2026-03-05", "country": "US", "geo": "New York, United States", "lat": 42.15, "lng": -74.938, "type": "CONFLICT", "mentions": 5}, {"title": "POLICE", "url": "https://www.themorningsun.com/2026/03/05/nyc-homeless-man-sleeping-outside-penn-station-set-on-fire-by-3-young-men/", "tone": -7.5, "date": "2026-03-05", "country": "US", "geo": "New York, United States", "lat": 42.15, "lng": -74.938, "type": "CONFLICT", "mentions": 10}, {"title": " \u2014 MILITARY", "url": "https://www.tbsnews.net/bangladesh/panic-buying-fuel-dhaka-filling-stations-begins-amid-middle-east-tensions-1377816", "tone": -7.4, "date": "2026-03-05", "country": "IR", "geo": "Tehran, Tehran, Iran", "lat": 35.75, "lng": 51.515, "type": "CONFLICT", "mentions": 2}, {"title": "BAHRAIN \u2014 QATAR", "url": "https://www.myjoyonline.com/destruction-seen-across-tehran-as-uae-reports-new-missile-and-drone-attacks-from-iran/", "tone": -7.0, "date": "2026-03-05", "country": "IR", "geo": "Tehran, Tehran, Iran", "lat": 35.75, "lng": 51.515, "type": "POLITICAL", "mentions": 2}, {"title": "BAHRAIN \u2014 QATAR", "url": "https://www.myjoyonline.com/destruction-seen-across-tehran-as-uae-reports-new-missile-and-drone-attacks-from-iran/", "tone": -7.0, "date": "2026-03-05", "country": "IZ", "geo": "Iraq", "lat": 33.0, "lng": 44.0, "type": "POLITICAL", "mentions": 3}, {"title": " \u2014 COLLEGE", "url": "https://www.rediff.com/news/report/six-arrested-in-mangaluru-drug-peddling-cases/20260305.htm", "tone": -6.9, "date": "2026-03-05", "country": "IN", "geo": "Mangaluru, Karnataka, India", "lat": 12.864, "lng": 74.835, "type": "POLITICAL", "mentions": 10}, {"title": " \u2014 COLLEGE", "url": "https://www.rediff.com/news/report/six-arrested-in-mangaluru-drug-peddling-cases/20260305.htm", "tone": -6.9, "date": "2026-03-05", "country": "IN", "geo": "Mangaluru, Karnataka, India", "lat": 12.864, "lng": 74.835, "type": "CONFLICT", "mentions": 10}, {"title": " \u2014 ISRAEL", "url": "http://www.sanantoniopost.com/news/278903923/trump-and-rubio-out-of-step-on-reasons-for-iran-war", "tone": -6.9, "date": "2026-03-05", "country": "IR", "geo": "Tehran, Tehran, Iran", "lat": 35.75, "lng": 51.515, "type": "POLITICAL", "mentions": 2}, {"title": "AZERBAIJAN \u2014 IRAN", "url": "https://www.lemonde.fr/en/middle-east-crisis/article/2026/03/05/azerbaijan-says-preparing-retaliatory-measures-after-iranian-drone-attack_6751123_368.html", "tone": -6.9, "date": "2026-03-05", "country": "IS", "geo": "Israel", "lat": 31.5, "lng": 34.75, "type": "CONFLICT", "mentions": 10}, {"title": "POLICE \u2014 COLLEGE", "url": "https://www.rediff.com/news/report/six-arrested-in-mangaluru-drug-peddling-cases/20260305.htm", "tone": -6.9, "date": "2026-03-05", "country": "IN", "geo": "Karnataka, Karnataka, India", "lat": 13.5, "lng": 76.0, "type": "POLITICAL", "mentions": 10}, {"title": "POLICE \u2014 COLLEGE", "url": "https://www.rediff.com/news/report/six-arrested-in-mangaluru-drug-peddling-cases/20260305.htm", "tone": -6.9, "date": "2026-03-05", "country": "IN", "geo": "Karnataka, Karnataka, India", "lat": 13.5, "lng": 76.0, "type": "CONFLICT", "mentions": 10}, {"title": "COLLEGE", "url": "https://www.rediff.com/news/report/six-arrested-in-mangaluru-drug-peddling-cases/20260305.htm", "tone": -6.9, "date": "2026-03-05", "country": "IN", "geo": "Mangaluru, Karnataka, India", "lat": 12.864, "lng": 74.835, "type": "POLITICAL", "mentions": 10}, {"title": "COLLEGE \u2014 POLICE", "url": "https://www.rediff.com/news/report/six-arrested-in-mangaluru-drug-peddling-cases/20260305.htm", "tone": -6.9, "date": "2026-03-05", "country": "IN", "geo": "Karnataka, Karnataka, India", "lat": 13.5, "lng": 76.0, "type": "POLITICAL", "mentions": 10}, {"title": " \u2014 IRANIAN", "url": "https://cyprus-mail.com/2026/03/05/azerbaijan-vows-to-respond-after-four-injured-by-iranian-drones", "tone": -6.5, "date": "2026-03-05", "country": "AJ", "geo": "Baku, Baki*, Azerbaijan", "lat": 40.395, "lng": 49.882, "type": "CONFLICT", "mentions": 1}, {"title": " \u2014 IRANIAN", "url": "https://cyprus-mail.com/2026/03/05/azerbaijan-vows-to-respond-after-four-injured-by-iranian-drones", "tone": -6.5, "date": "2026-03-05", "country": "IR", "geo": "Tehran, Tehran, Iran", "lat": 35.75, "lng": 51.515, "type": "CONFLICT", "mentions": 1}, {"title": "AZERBAIJAN \u2014 IRANIAN", "url": "https://cyprus-mail.com/2026/03/05/azerbaijan-vows-to-respond-after-four-injured-by-iranian-drones", "tone": -6.5, "date": "2026-03-05", "country": "AJ", "geo": "Baku, Baki*, Azerbaijan", "lat": 40.395, "lng": 49.882, "type": "CONFLICT", "mentions": 4}, {"title": "AZERBAIJAN \u2014 IRAN", "url": "https://cyprus-mail.com/2026/03/05/azerbaijan-vows-to-respond-after-four-injured-by-iranian-drones", "tone": -6.5, "date": "2026-03-05", "country": "IR", "geo": "Tehran, Tehran, Iran", "lat": 35.75, "lng": 51.515, "type": "CONFLICT", "mentions": 2}, {"title": " \u2014 PROFESSOR", "url": "https://www.el-balad.com/16868786", "tone": -6.3, "date": "2026-03-05", "country": "AS", "geo": "Canberra, Australian Capital Territory, Australia", "lat": -35.283, "lng": 149.217, "type": "POLITICAL", "mentions": 6}, {"title": "AZERBAIJAN \u2014 IRAN", "url": "https://www.newkerala.com/news/a/qatar-defence-ministry-says-missile-attack-underway-air-189.htm", "tone": -6.3, "date": "2026-03-05", "country": "AJ", "geo": "Azerbaijan", "lat": 40.5, "lng": 47.5, "type": "POLITICAL", "mentions": 2}, {"title": "PROFESSOR", "url": "https://www.el-balad.com/16868786", "tone": -6.3, "date": "2026-03-05", "country": "AS", "geo": "Canberra, Australian Capital Territory, Australia", "lat": -35.283, "lng": 149.217, "type": "POLITICAL", "mentions": 6}, {"title": " \u2014 AUTHORITIES", "url": "https://www.wlrn.org/wlrn-investigations/2026-03-05/racial-profiling-hispanic-florida-highway-patrol-fhp-trooper", "tone": -6.2, "date": "2026-03-05", "country": "US", "geo": "Palm Beach County, Florida, United States", "lat": 26.65, "lng": -80.45, "type": "CONFLICT", "mentions": 1}, {"title": " \u2014 AUTHORITIES", "url": "https://www.wlrn.org/wlrn-investigations/2026-03-05/racial-profiling-hispanic-florida-highway-patrol-fhp-trooper", "tone": -6.2, "date": "2026-03-05", "country": "US", "geo": "Florida, United States", "lat": 27.833, "lng": -81.717, "type": "CONFLICT", "mentions": 3}, {"title": " \u2014 UNITED STATES", "url": "https://www.wlrn.org/wlrn-investigations/2026-03-05/racial-profiling-hispanic-florida-highway-patrol-fhp-trooper", "tone": -6.2, "date": "2026-03-05", "country": "US", "geo": "Palm Beach County, Florida, United States", "lat": 26.65, "lng": -80.45, "type": "CONFLICT", "mentions": 2}, {"title": " \u2014 UNITED STATES", "url": "https://www.wlrn.org/wlrn-investigations/2026-03-05/racial-profiling-hispanic-florida-highway-patrol-fhp-trooper", "tone": -6.2, "date": "2026-03-05", "country": "US", "geo": "Palm Beach County, Florida, United States", "lat": 26.65, "lng": -80.45, "type": "CONFLICT", "mentions": 2}, {"title": "BARBADOS", "url": "https://barbadostoday.bb/2026/03/05/cannabis-trafficking-trial-underway/", "tone": -6.0, "date": "2026-03-05", "country": "BB", "geo": "Barbados", "lat": 13.167, "lng": -59.533, "type": "CONFLICT", "mentions": 2}, {"title": "BARBADOS", "url": "https://barbadostoday.bb/2026/03/05/cannabis-trafficking-trial-underway/", "tone": -6.0, "date": "2026-03-05", "country": "CA", "geo": "Canada", "lat": 60.0, "lng": -96.0, "type": "CONFLICT", "mentions": 1}, {"title": "AUTOMAKER \u2014 COMPANY", "url": "https://chinaeconomicreview.com/chinas-auto-exports-see-iran-war-disruption/", "tone": -5.9, "date": "2026-03-05", "country": "CH", "geo": "China", "lat": 35.0, "lng": 105.0, "type": "POLITICAL", "mentions": 10}, {"title": "CANADA \u2014 CUBA", "url": "https://news.sky.com/story/millions-in-cuba-hit-by-blackout-as-trump-embargo-bites-13515578", "tone": -5.9, "date": "2026-03-05", "country": "CA", "geo": "Canada", "lat": 60.0, "lng": -96.0, "type": "POLITICAL", "mentions": 6}, {"title": "CHINESE \u2014 MEXICO", "url": "https://chinaeconomicreview.com/chinas-auto-exports-see-iran-war-disruption/", "tone": -5.9, "date": "2026-03-05", "country": "CH", "geo": "China", "lat": 35.0, "lng": 105.0, "type": "POLITICAL", "mentions": 8}, {"title": " \u2014 STUDENT", "url": "https://www.hometownregister.com/news/national/german-school-students-rally-against-army-recruitment-drive/article_ff9abb22-89d4-5a3c-baa2-dad4371d4295.html", "tone": -5.8, "date": "2026-03-05", "country": "GM", "geo": "Koblenz, Rheinland-Pfalz, Germany", "lat": 50.35, "lng": 7.6, "type": "POLITICAL", "mentions": 10}, {"title": "GERMANY \u2014 SCHOOL", "url": "https://www.hometownregister.com/news/national/german-school-students-rally-against-army-recruitment-drive/article_ff9abb22-89d4-5a3c-baa2-dad4371d4295.html", "tone": -5.8, "date": "2026-03-05", "country": "GM", "geo": "Berlin, Berlin, Germany", "lat": 52.517, "lng": 13.4, "type": "CONFLICT", "mentions": 5}, {"title": "GERMANY \u2014 ARMED FORCES", "url": "https://www.hometownregister.com/news/national/german-school-students-rally-against-army-recruitment-drive/article_ff9abb22-89d4-5a3c-baa2-dad4371d4295.html", "tone": -5.8, "date": "2026-03-05", "country": "GM", "geo": "Berlin, Berlin, Germany", "lat": 52.517, "lng": 13.4, "type": "CONFLICT", "mentions": 1}, {"title": "GERMANY \u2014 ARMED FORCES", "url": "https://www.hometownregister.com/news/national/german-school-students-rally-against-army-recruitment-drive/article_ff9abb22-89d4-5a3c-baa2-dad4371d4295.html", "tone": -5.8, "date": "2026-03-05", "country": "GM", "geo": "Berlin, Berlin, Germany", "lat": 52.517, "lng": 13.4, "type": "CONFLICT", "mentions": 1}, {"title": "GERMANY \u2014 ARMED FORCES", "url": "https://www.hometownregister.com/news/national/german-school-students-rally-against-army-recruitment-drive/article_ff9abb22-89d4-5a3c-baa2-dad4371d4295.html", "tone": -5.8, "date": "2026-03-05", "country": "RS", "geo": "Russia", "lat": 60.0, "lng": 100.0, "type": "CONFLICT", "mentions": 3}, {"title": "STUDENT", "url": "https://www.hometownregister.com/news/national/german-school-students-rally-against-army-recruitment-drive/article_ff9abb22-89d4-5a3c-baa2-dad4371d4295.html", "tone": -5.8, "date": "2026-03-05", "country": "GM", "geo": "Berlin, Berlin, Germany", "lat": 52.517, "lng": 13.4, "type": "POLITICAL", "mentions": 10}, {"title": "STUDENT \u2014 BERLIN", "url": "https://www.hometownregister.com/news/national/german-school-students-rally-against-army-recruitment-drive/article_ff9abb22-89d4-5a3c-baa2-dad4371d4295.html", "tone": -5.8, "date": "2026-03-05", "country": "GM", "geo": "Berlin, Berlin, Germany", "lat": 52.517, "lng": 13.4, "type": "POLITICAL", "mentions": 3}, {"title": "STUDENT \u2014 GERMANY", "url": "https://www.hometownregister.com/news/national/german-school-students-rally-against-army-recruitment-drive/article_ff9abb22-89d4-5a3c-baa2-dad4371d4295.html", "tone": -5.8, "date": "2026-03-05", "country": "GM", "geo": "Berlin, Berlin, Germany", "lat": 52.517, "lng": 13.4, "type": "CONFLICT", "mentions": 5}, {"title": "ABU DHABI \u2014 MANAMA", "url": "https://www.sanfordherald.com/news/national/war-in-the-middle-east-latest-developments/article_9426312c-c50e-548b-b186-bb6e40285474.html", "tone": -5.7, "date": "2026-03-05", "country": "SA", "geo": "Saudi Arabia", "lat": 25.0, "lng": 45.0, "type": "CONFLICT", "mentions": 4}, {"title": "UNITED ARAB EMIRATES \u2014 BAHRAIN", "url": "https://www.sanfordherald.com/news/national/war-in-the-middle-east-latest-developments/article_9426312c-c50e-548b-b186-bb6e40285474.html", "tone": -5.7, "date": "2026-03-05", "country": "BA", "geo": "Manama, Al Manamah, Bahrain", "lat": 26.236, "lng": 50.583, "type": "CONFLICT", "mentions": 2}, {"title": "AZERBAIJAN", "url": "https://www.sanfordherald.com/news/national/war-in-the-middle-east-latest-developments/article_9426312c-c50e-548b-b186-bb6e40285474.html", "tone": -5.7, "date": "2026-03-05", "country": "AJ", "geo": "Baku, Baki*, Azerbaijan", "lat": 40.395, "lng": 49.882, "type": "POLITICAL", "mentions": 2}, {"title": " \u2014 UNITED KINGDOM", "url": "https://www.theguardian.com/uk-news/2026/mar/05/alleged-rapist-paul-quinn-online-searches--malkinson-case-court-told", "tone": -5.6, "date": "2026-03-05", "country": "UK", "geo": "Manchester, Manchester, United Kingdom", "lat": 53.5, "lng": -2.217, "type": "POLITICAL", "mentions": 4}, {"title": " \u2014 UNITED KINGDOM", "url": "https://www.theguardian.com/uk-news/2026/mar/05/alleged-rapist-paul-quinn-online-searches--malkinson-case-court-told", "tone": -5.6, "date": "2026-03-05", "country": "UK", "geo": "Manchester, Manchester, United Kingdom", "lat": 53.5, "lng": -2.217, "type": "CONFLICT", "mentions": 4}, {"title": "POLICE", "url": "https://www.theguardian.com/uk-news/2026/mar/05/alleged-rapist-paul-quinn-online-searches--malkinson-case-court-told", "tone": -5.6, "date": "2026-03-05", "country": "UK", "geo": "Exeter, Devon, United Kingdom", "lat": 50.7, "lng": -3.533, "type": "POLITICAL", "mentions": 5}, {"title": "PRISON \u2014 BRITAIN", "url": "https://www.theguardian.com/uk-news/2026/mar/05/alleged-rapist-paul-quinn-online-searches--malkinson-case-court-told", "tone": -5.6, "date": "2026-03-05", "country": "UK", "geo": "Manchester, Manchester, United Kingdom", "lat": 53.5, "lng": -2.217, "type": "POLITICAL", "mentions": 6}, {"title": "PRISON \u2014 BRITAIN", "url": "https://www.theguardian.com/uk-news/2026/mar/05/alleged-rapist-paul-quinn-online-searches--malkinson-case-court-told", "tone": -5.6, "date": "2026-03-05", "country": "UK", "geo": "Manchester, Manchester, United Kingdom", "lat": 53.5, "lng": -2.217, "type": "POLITICAL", "mentions": 4}, {"title": "POLICE \u2014 GOOGLE", "url": "https://www.theguardian.com/uk-news/2026/mar/05/alleged-rapist-paul-quinn-online-searches--malkinson-case-court-told", "tone": -5.6, "date": "2026-03-05", "country": "UK", "geo": "Exeter, Devon, United Kingdom", "lat": 50.7, "lng": -3.533, "type": "POLITICAL", "mentions": 5}, {"title": "UNITED KINGDOM", "url": "https://www.theguardian.com/uk-news/2026/mar/05/alleged-rapist-paul-quinn-online-searches--malkinson-case-court-told", "tone": -5.6, "date": "2026-03-05", "country": "UK", "geo": "Manchester, Manchester, United Kingdom", "lat": 53.5, "lng": -2.217, "type": "POLITICAL", "mentions": 2}, {"title": "EMIRATI \u2014 MANAMA", "url": "https://www.standardmedia.co.ke/asia/article/2001542380/war-in-the-middle-east-latest-developments", "tone": -5.4, "date": "2026-03-05", "country": "SA", "geo": "Saudi Arabia", "lat": 25.0, "lng": 45.0, "type": "CONFLICT", "mentions": 10}, {"title": "BAKU", "url": "https://www.standardmedia.co.ke/asia/article/2001542380/war-in-the-middle-east-latest-developments", "tone": -5.4, "date": "2026-03-05", "country": "AJ", "geo": "Nakhichevan, Nax\u00c3\u00a7an**, Azerbaijan", "lat": 39.209, "lng": 45.412, "type": "POLITICAL", "mentions": 3}, {"title": " \u2014 THE UN", "url": "https://www.rte.ie/news/primetime/2026/0305/1561809-iranian-school-strike/", "tone": -5.3, "date": "2026-03-05", "country": "IR", "geo": "Hormozgan, Hormozgan, Iran", "lat": 27.75, "lng": 56.5, "type": "POLITICAL", "mentions": 10}, {"title": " \u2014 THE UN", "url": "https://www.rte.ie/news/primetime/2026/0305/1561809-iranian-school-strike/", "tone": -5.3, "date": "2026-03-05", "country": "IR", "geo": "Hormozgan, Hormozgan, Iran", "lat": 27.75, "lng": 56.5, "type": "POLITICAL", "mentions": 10}, {"title": "SCHOOL", "url": "https://www.rte.ie/news/primetime/2026/0305/1561809-iranian-school-strike/", "tone": -5.3, "date": "2026-03-05", "country": "IR", "geo": "Minab, Sistan va Baluchestan, Iran", "lat": 25.789, "lng": 61.102, "type": "CONFLICT", "mentions": 10}, {"title": "SCHOOL \u2014 CIVILIAN", "url": "https://www.rte.ie/news/primetime/2026/0305/1561809-iranian-school-strike/", "tone": -5.3, "date": "2026-03-05", "country": "IR", "geo": "Hormozgan, Hormozgan, Iran", "lat": 27.75, "lng": 56.5, "type": "POLITICAL", "mentions": 5}, {"title": "IRAN \u2014 MILITARY", "url": "https://www.standardmedia.co.ke/asia/article/2001542380/war-in-the-middle-east-latest-developments", "tone": -5.2, "date": "2026-02-26", "country": "IR", "geo": "Tehran, Tehran, Iran", "lat": 35.75, "lng": 51.515, "type": "POLITICAL", "mentions": 10}, {"title": " \u2014 GERMANY", "url": "https://www.yahoo.com/news/articles/union-loses-fight-against-tesla-130800787.html", "tone": -5.2, "date": "2026-03-05", "country": "GM", "geo": "Berlin, Berlin, Germany", "lat": 52.517, "lng": 13.4, "type": "POLITICAL", "mentions": 4}, {"title": " \u2014 MUSLIM", "url": "https://indianexpress.com/article/india/iris-dena-sinking-omar-abdullah-jk-reaction-10566300/", "tone": -5.2, "date": "2026-03-05", "country": "VE", "geo": "Venezuela", "lat": 8.0, "lng": -66.0, "type": "POLITICAL", "mentions": 10}, {"title": "EMIRATI \u2014 BAHRAIN", "url": "https://www.standardmedia.co.ke/asia/article/2001542380/war-in-the-middle-east-latest-developments", "tone": -5.2, "date": "2026-03-05", "country": "BA", "geo": "Manama, Al Manamah, Bahrain", "lat": 26.236, "lng": 50.583, "type": "CONFLICT", "mentions": 2}, {"title": "COMPANY", "url": "https://www.yahoo.com/news/articles/union-loses-fight-against-tesla-130800787.html", "tone": -5.2, "date": "2026-03-05", "country": "GM", "geo": "Berlin, Berlin, Germany", "lat": 52.517, "lng": 13.4, "type": "POLITICAL", "mentions": 5}, {"title": "GERMANY \u2014 CARMAKER", "url": "https://www.yahoo.com/news/articles/union-loses-fight-against-tesla-130800787.html", "tone": -5.2, "date": "2026-03-05", "country": "GM", "geo": "Berlin, Berlin, Germany", "lat": 52.517, "lng": 13.4, "type": "POLITICAL", "mentions": 4}, {"title": "GERMANY \u2014 EMPLOYEE", "url": "https://www.yahoo.com/news/articles/union-loses-fight-against-tesla-130800787.html", "tone": -5.2, "date": "2026-03-05", "country": "GM", "geo": "Berlin, Berlin, Germany", "lat": 52.517, "lng": 13.4, "type": "POLITICAL", "mentions": 4}, {"title": "LYON \u2014 BUSINESS", "url": "https://www.thedailybeast.com/dhs-and-ice-makes-humiliating-decision-over-donald-trumps-deadly-detention-center/", "tone": -5.2, "date": "2026-03-05", "country": "US", "geo": "Montana, United States", "lat": 46.905, "lng": -110.326, "type": "POLITICAL", "mentions": 8}, {"title": "NEPAL", "url": "https://www.chennaionline.com/news/nepal-votes-in-first-post-protest-election/", "tone": -5.1, "date": "2025-03-05", "country": "NP", "geo": "Nepal", "lat": 28.0, "lng": 84.0, "type": "POLITICAL", "mentions": 10}, {"title": "POLICE", "url": "https://www.rediff.com/news/report/5bjp-mlc-digital-arrest-in-up-case-lodged/20260305.htm", "tone": -5.1, "date": "2026-03-05", "country": "IN", "geo": "Sultanpur, Uttar Pradesh, India", "lat": 26.267, "lng": 82.067, "type": "POLITICAL", "mentions": 10}, {"title": "RUSSIA \u2014 ISRAEL", "url": "https://www.middleeasteye.net/live-blog/live-blog-update/good-afternoon", "tone": -5.0, "date": "2026-02-26", "country": "RS", "geo": "Moscow, Moskva, Russia", "lat": 55.752, "lng": 37.616, "type": "POLITICAL", "mentions": 4}, {"title": "RUSSIA \u2014 UNITED STATES", "url": "https://www.middleeasteye.net/live-blog/live-blog-update/good-afternoon", "tone": -5.0, "date": "2026-02-26", "country": "RS", "geo": "Moscow, Moskva, Russia", "lat": 55.752, "lng": 37.616, "type": "POLITICAL", "mentions": 3}, {"title": " \u2014 UNITED STATES", "url": "https://time.com/7382652/iran-warns-united-states-conflict-escalates-struck-warship/", "tone": -5.0, "date": "2026-03-05", "country": "US", "geo": "Washington, District of Columbia, United States", "lat": 38.895, "lng": -77.036, "type": "CONFLICT", "mentions": 1}, {"title": " \u2014 TANKER", "url": "https://www.whtimes.co.uk/news/national/25909037.iran-launches-new-attacks-saying-us-will-bitterly-regret-sinking-warship/", "tone": -4.7, "date": "2026-03-05", "country": "UK", "geo": "United Kingdom", "lat": 54.0, "lng": -4.0, "type": "CONFLICT", "mentions": 2}, {"title": "AZERBAIJAN \u2014 IRAN", "url": "https://www.upi.com/Top_News/World-News/2026/03/05/Iran-vows-revenge-for-frigate-sinking/3631772703130/", "tone": -4.7, "date": "2026-03-05", "country": "AJ", "geo": "Azerbaijan", "lat": 40.5, "lng": 47.5, "type": "POLITICAL", "mentions": 16}, {"title": "AZERBAIJAN \u2014 IRAN", "url": "https://www.upi.com/Top_News/World-News/2026/03/05/Iran-vows-revenge-for-frigate-sinking/3631772703130/", "tone": -4.7, "date": "2026-03-05", "country": "IR", "geo": "Iran", "lat": 32.0, "lng": 53.0, "type": "POLITICAL", "mentions": 4}, {"title": "BAHRAIN \u2014 CONTAINER VESSEL", "url": "https://www.whtimes.co.uk/news/national/25909037.iran-launches-new-attacks-saying-us-will-bitterly-regret-sinking-warship/", "tone": -4.7, "date": "2026-03-05", "country": "AE", "geo": "Dubai, Dubayy, United Arab Emirates", "lat": 25.252, "lng": 55.28, "type": "POLITICAL", "mentions": 6}, {"title": "CONTAINER VESSEL \u2014 BAHRAIN", "url": "https://www.whtimes.co.uk/news/national/25909037.iran-launches-new-attacks-saying-us-will-bitterly-regret-sinking-warship/", "tone": -4.7, "date": "2026-03-05", "country": "AE", "geo": "Dubai, Dubayy, United Arab Emirates", "lat": 25.252, "lng": 55.28, "type": "POLITICAL", "mentions": 6}, {"title": "CONTAINER VESSEL \u2014 KUWAIT", "url": "https://www.whtimes.co.uk/news/national/25909037.iran-launches-new-attacks-saying-us-will-bitterly-regret-sinking-warship/", "tone": -4.7, "date": "2026-03-05", "country": "AE", "geo": "Dubai, Dubayy, United Arab Emirates", "lat": 25.252, "lng": 55.28, "type": "POLITICAL", "mentions": 6}, {"title": "CONTAINER VESSEL \u2014 QATAR", "url": "https://www.whtimes.co.uk/news/national/25909037.iran-launches-new-attacks-saying-us-will-bitterly-regret-sinking-warship/", "tone": -4.7, "date": "2026-03-05", "country": "AE", "geo": "Dubai, Dubayy, United Arab Emirates", "lat": 25.252, "lng": 55.28, "type": "POLITICAL", "mentions": 6}, {"title": "CONTAINER VESSEL \u2014 SAUDI ARABIA", "url": "https://www.whtimes.co.uk/news/national/25909037.iran-launches-new-attacks-saying-us-will-bitterly-regret-sinking-warship/", "tone": -4.7, "date": "2026-03-05", "country": "AE", "geo": "Dubai, Dubayy, United Arab Emirates", "lat": 25.252, "lng": 55.28, "type": "POLITICAL", "mentions": 6}, {"title": "SECURITY OFFICIAL \u2014 IRAQ", "url": "https://www.whtimes.co.uk/news/national/25909037.iran-launches-new-attacks-saying-us-will-bitterly-regret-sinking-warship/", "tone": -4.7, "date": "2026-03-05", "country": "IZ", "geo": "Najaf, An Najaf, Iraq", "lat": 31.989, "lng": 44.329, "type": "POLITICAL", "mentions": 8}, {"title": "FRANCE \u2014 GREECE", "url": "https://www.whtimes.co.uk/news/national/25909037.iran-launches-new-attacks-saying-us-will-bitterly-regret-sinking-warship/", "tone": -4.7, "date": "2026-03-05", "country": "GR", "geo": "Greece", "lat": 39.0, "lng": 22.0, "type": "POLITICAL", "mentions": 6}, {"title": "FRANCE \u2014 ITALY", "url": "https://www.whtimes.co.uk/news/national/25909037.iran-launches-new-attacks-saying-us-will-bitterly-regret-sinking-warship/", "tone": -4.7, "date": "2026-03-05", "country": "GR", "geo": "Greece", "lat": 39.0, "lng": 22.0, "type": "POLITICAL", "mentions": 6}, {"title": " \u2014 IRANIAN", "url": "https://www.thejournal.ie/factcheck-debunked-misinformation-iran-conflict-compuold-footage-bahrain-dubai-missile-debris-girls-schoolter-games-6974899-Mar2026/", "tone": -4.5, "date": "2026-03-05", "country": "IR", "geo": "Minab, Sistan va Baluchestan, Iran", "lat": 25.789, "lng": 61.102, "type": "POLITICAL", "mentions": 2}, {"title": "SCHOOL \u2014 IRANIAN", "url": "https://www.thejournal.ie/factcheck-debunked-misinformation-iran-conflict-compuold-footage-bahrain-dubai-missile-debris-girls-schoolter-games-6974899-Mar2026/", "tone": -4.5, "date": "2026-03-05", "country": "IR", "geo": "Minab, Sistan va Baluchestan, Iran", "lat": 25.789, "lng": 61.102, "type": "POLITICAL", "mentions": 8}, {"title": "DEPUTY \u2014 AZERBAIJAN", "url": "https://www.trend.az/azerbaijan/politics/4161378.html", "tone": -4.4, "date": "2026-03-05", "country": "LE", "geo": "Lebanon", "lat": 33.833, "lng": 35.833, "type": "POLITICAL", "mentions": 10}, {"title": "DEPUTY \u2014 LEBANON", "url": "https://www.trend.az/azerbaijan/politics/4161378.html", "tone": -4.4, "date": "2026-03-05", "country": "AJ", "geo": "Baku, Baki*, Azerbaijan", "lat": 40.395, "lng": 49.882, "type": "CONFLICT", "mentions": 2}, {"title": "DEPUTY \u2014 LEBANON", "url": "https://www.trend.az/azerbaijan/politics/4161378.html", "tone": -4.4, "date": "2026-03-05", "country": "IR", "geo": "Iran", "lat": 32.0, "lng": 53.0, "type": "CONFLICT", "mentions": 6}, {"title": " \u2014 CHAMBER", "url": "https://www.wesa.fm/politics-government/2026-03-05/whistleblower-false-claims-pennsylvania-shapiro-capitol", "tone": -4.1, "date": "2026-03-05", "country": "US", "geo": "Indiana, United States", "lat": 39.865, "lng": -86.26, "type": "POLITICAL", "mentions": 4}, {"title": " \u2014 UNITED STATES", "url": "https://www.wesa.fm/politics-government/2026-03-05/whistleblower-false-claims-pennsylvania-shapiro-capitol", "tone": -4.1, "date": "2026-03-05", "country": "US", "geo": "Indiana, United States", "lat": 39.865, "lng": -86.26, "type": "POLITICAL", "mentions": 4}, {"title": "BUSINESS", "url": "https://www.orangevilletoday.ca/2026/03/05/orangeville-forecast-for-thursday-march-5th/", "tone": -4.1, "date": "2026-03-05", "country": "CA", "geo": "Orangeville, Ontario, Canada", "lat": 43.917, "lng": -80.083, "type": "POLITICAL", "mentions": 5}, {"title": "BUSINESS \u2014 HOSPITAL", "url": "https://www.wesa.fm/politics-government/2026-03-05/whistleblower-false-claims-pennsylvania-shapiro-capitol", "tone": -4.1, "date": "2026-03-05", "country": "US", "geo": "Indiana, United States", "lat": 39.865, "lng": -86.26, "type": "POLITICAL", "mentions": 6}, {"title": "POLICE \u2014 VILLAGE", "url": "https://www.rediff.com/news/report/burnt-body-found-in-east-singhbhum-forest/20260305.htm", "tone": -4.1, "date": "2026-03-05", "country": "IN", "geo": "Bankata, Uttar Pradesh, India", "lat": 26.283, "lng": 84.1, "type": "POLITICAL", "mentions": 4}, {"title": "POLICE \u2014 VILLAGE", "url": "https://www.rediff.com/news/report/burnt-body-found-in-east-singhbhum-forest/20260305.htm", "tone": -4.1, "date": "2026-03-05", "country": "IN", "geo": "Odisha, Orissa, India", "lat": 20.5, "lng": 84.417, "type": "POLITICAL", "mentions": 6}, {"title": "POLICE \u2014 COLLEGE", "url": "https://www.rediff.com/news/report/burnt-body-found-in-east-singhbhum-forest/20260305.htm", "tone": -4.1, "date": "2026-03-05", "country": "IN", "geo": "Jamshedpur, Jharkhand, India", "lat": 22.8, "lng": 86.183, "type": "POLITICAL", "mentions": 6}, {"title": "POLICE \u2014 COLLEGE", "url": "https://www.rediff.com/news/report/burnt-body-found-in-east-singhbhum-forest/20260305.htm", "tone": -4.1, "date": "2026-03-05", "country": "IN", "geo": "Odisha, Orissa, India", "lat": 20.5, "lng": 84.417, "type": "POLITICAL", "mentions": 4}, {"title": "POLICE \u2014 COLLEGE", "url": "https://www.rediff.com/news/report/burnt-body-found-in-east-singhbhum-forest/20260305.htm", "tone": -4.1, "date": "2026-03-05", "country": "IN", "geo": "Jamshedpur, Jharkhand, India", "lat": 22.8, "lng": 86.183, "type": "POLITICAL", "mentions": 6}, {"title": "POLICE \u2014 COLLEGE", "url": "https://www.rediff.com/news/report/burnt-body-found-in-east-singhbhum-forest/20260305.htm", "tone": -4.1, "date": "2026-03-05", "country": "IN", "geo": "Jamshedpur, Jharkhand, India", "lat": 22.8, "lng": 86.183, "type": "POLITICAL", "mentions": 2}, {"title": "POLICE \u2014 COLLEGE", "url": "https://www.rediff.com/news/report/burnt-body-found-in-east-singhbhum-forest/20260305.htm", "tone": -4.1, "date": "2026-03-05", "country": "IN", "geo": "Odisha, Orissa, India", "lat": 20.5, "lng": 84.417, "type": "POLITICAL", "mentions": 2}, {"title": "POLICE \u2014 HOSPITAL", "url": "https://www.rediff.com/news/report/burnt-body-found-in-east-singhbhum-forest/20260305.htm", "tone": -4.1, "date": "2026-03-05", "country": "IN", "geo": "Jamshedpur, Jharkhand, India", "lat": 22.8, "lng": 86.183, "type": "POLITICAL", "mentions": 6}, {"title": "POLICE \u2014 HOSPITAL", "url": "https://www.rediff.com/news/report/burnt-body-found-in-east-singhbhum-forest/20260305.htm", "tone": -4.1, "date": "2026-03-05", "country": "IN", "geo": "Odisha, Orissa, India", "lat": 20.5, "lng": 84.417, "type": "POLITICAL", "mentions": 4}, {"title": "POLICE \u2014 HOSPITAL", "url": "https://www.rediff.com/news/report/burnt-body-found-in-east-singhbhum-forest/20260305.htm", "tone": -4.1, "date": "2026-03-05", "country": "IN", "geo": "Jamshedpur, Jharkhand, India", "lat": 22.8, "lng": 86.183, "type": "POLITICAL", "mentions": 6}, {"title": "POLICE \u2014 HOSPITAL", "url": "https://www.rediff.com/news/report/burnt-body-found-in-east-singhbhum-forest/20260305.htm", "tone": -4.1, "date": "2026-03-05", "country": "IN", "geo": "Jamshedpur, Jharkhand, India", "lat": 22.8, "lng": 86.183, "type": "POLITICAL", "mentions": 2}, {"title": "POLICE \u2014 HOSPITAL", "url": "https://www.rediff.com/news/report/burnt-body-found-in-east-singhbhum-forest/20260305.htm", "tone": -4.1, "date": "2026-03-05", "country": "IN", "geo": "Odisha, Orissa, India", "lat": 20.5, "lng": 84.417, "type": "POLITICAL", "mentions": 2}, {"title": "CRIMINAL", "url": "https://www.rediff.com/news/report/burnt-body-found-in-east-singhbhum-forest/20260305.htm", "tone": -4.1, "date": "2026-03-05", "country": "IN", "geo": "Odisha, Orissa, India", "lat": 20.5, "lng": 84.417, "type": "CONFLICT", "mentions": 10}, {"title": " \u2014 IRAN", "url": "https://www.aol.com/articles/cnn-viewers-shout-donald-trump-124404231.html", "tone": -4.0, "date": "2026-03-05", "country": "US", "geo": "White House, District of Columbia, United States", "lat": 38.895, "lng": -77.036, "type": "POLITICAL", "mentions": 2}, {"title": " \u2014 MILITARY", "url": "https://www.aol.com/articles/cnn-viewers-shout-donald-trump-124404231.html", "tone": -4.0, "date": "2026-03-05", "country": "US", "geo": "White House, District of Columbia, United States", "lat": 38.895, "lng": -77.036, "type": "POLITICAL", "mentions": 3}, {"title": "COMPANIES \u2014 PRESIDENT", "url": "https://www.aol.com/articles/cnn-viewers-shout-donald-trump-124404231.html", "tone": -4.0, "date": "2026-03-05", "country": "IR", "geo": "Tehran, Tehran, Iran", "lat": 35.75, "lng": 51.515, "type": "POLITICAL", "mentions": 8}, {"title": "CHINA \u2014 UNITED KINGDOM", "url": "https://www.dailyrecord.co.uk/news/politics/labour-considering-suspending-scots-mp-36817016", "tone": -3.9, "date": "2025-03-05", "country": "UK", "geo": "Strathaven, South Lanarkshire, United Kingdom", "lat": 55.667, "lng": -4.067, "type": "POLITICAL", "mentions": 4}, {"title": " \u2014 CHINA", "url": "https://www.dailyrecord.co.uk/news/politics/labour-considering-suspending-scots-mp-36817016", "tone": -3.9, "date": "2026-03-05", "country": "CH", "geo": "China", "lat": 35.0, "lng": 105.0, "type": "CONFLICT", "mentions": 4}, {"title": "CHINA", "url": "https://www.dailyrecord.co.uk/news/politics/labour-considering-suspending-scots-mp-36817016", "tone": -3.9, "date": "2026-03-05", "country": "CH", "geo": "China", "lat": 35.0, "lng": 105.0, "type": "POLITICAL", "mentions": 4}, {"title": "CHINA", "url": "https://www.dailyrecord.co.uk/news/politics/labour-considering-suspending-scots-mp-36817016", "tone": -3.9, "date": "2026-03-05", "country": "CH", "geo": "China", "lat": 35.0, "lng": 105.0, "type": "POLITICAL", "mentions": 4}, {"title": "CHINA", "url": "https://www.dailyrecord.co.uk/news/politics/labour-considering-suspending-scots-mp-36817016", "tone": -3.9, "date": "2026-03-05", "country": "UK", "geo": "London, London, City of, United Kingdom", "lat": 51.5, "lng": -0.117, "type": "POLITICAL", "mentions": 2}, {"title": "CHINA \u2014 SCOT", "url": "https://www.dailyrecord.co.uk/news/politics/labour-considering-suspending-scots-mp-36817016", "tone": -3.9, "date": "2026-03-05", "country": "UK", "geo": "London, London, City of, United Kingdom", "lat": 51.5, "lng": -0.117, "type": "CONFLICT", "mentions": 6}, {"title": "CHINA \u2014 SCOT", "url": "https://www.dailyrecord.co.uk/news/politics/labour-considering-suspending-scots-mp-36817016", "tone": -3.9, "date": "2026-03-05", "country": "UK", "geo": "Strathaven, South Lanarkshire, United Kingdom", "lat": 55.667, "lng": -4.067, "type": "CONFLICT", "mentions": 4}, {"title": "CHINA \u2014 SCOT", "url": "https://www.dailyrecord.co.uk/news/politics/labour-considering-suspending-scots-mp-36817016", "tone": -3.9, "date": "2026-03-05", "country": "CH", "geo": "China", "lat": 35.0, "lng": 105.0, "type": "CONFLICT", "mentions": 10}, {"title": "CHINA \u2014 SCOT", "url": "https://www.dailyrecord.co.uk/news/politics/labour-considering-suspending-scots-mp-36817016", "tone": -3.9, "date": "2026-03-05", "country": "CH", "geo": "China", "lat": 35.0, "lng": 105.0, "type": "CONFLICT", "mentions": 20}, {"title": " \u2014 RESIDENTS", "url": "https://www.lbc.co.uk/article/selfish-heartless-dubai-expats-dumping-pets-flee-war-5HjdTs6_2/", "tone": -3.8, "date": "2026-03-05", "country": "MU", "geo": "Oman", "lat": 21.0, "lng": 57.0, "type": "POLITICAL", "mentions": 10}, {"title": " \u2014 UNITED KINGDOM", "url": "https://www.lbc.co.uk/article/iran-war-cyprus-starmer-bomb-5HjdTs4_2/", "tone": -3.8, "date": "2026-03-05", "country": "UK", "geo": "Fairford, Gloucestershire, United Kingdom", "lat": 51.7, "lng": -1.783, "type": "POLITICAL", "mentions": 8}, {"title": " \u2014 UKRAINE", "url": "https://www.kyivpost.com/post/71303", "tone": -3.8, "date": "2026-03-05", "country": "RS", "geo": "Moscow, Moskva, Russia", "lat": 55.752, "lng": 37.616, "type": "POLITICAL", "mentions": 2}, {"title": "RESIDENTS", "url": "https://www.fox5ny.com/news/nycha-residents-mamdani-rental-ripoff-hearings", "tone": -3.8, "date": "2026-03-05", "country": "US", "geo": "Gracie Mansion, New York, United States", "lat": 40.776, "lng": -73.943, "type": "POLITICAL", "mentions": 5}, {"title": "TENANTS", "url": "https://www.fox5ny.com/news/nycha-residents-mamdani-rental-ripoff-hearings", "tone": -3.8, "date": "2026-03-05", "country": "US", "geo": "Gracie Mansion, New York, United States", "lat": 40.776, "lng": -73.943, "type": "POLITICAL", "mentions": 5}, {"title": "UNITED KINGDOM", "url": "https://www.lbc.co.uk/article/iran-war-cyprus-starmer-bomb-5HjdTs4_2/", "tone": -3.8, "date": "2026-03-05", "country": "UK", "geo": "Fairford, Gloucestershire, United Kingdom", "lat": 51.7, "lng": -1.783, "type": "CONFLICT", "mentions": 1}, {"title": "BRITAIN", "url": "https://www.lbc.co.uk/article/iran-war-cyprus-starmer-bomb-5HjdTs4_2/", "tone": -3.8, "date": "2026-03-05", "country": "CY", "geo": "Cyprus", "lat": 35.0, "lng": 33.0, "type": "CONFLICT", "mentions": 4}, {"title": "BRITAIN", "url": "https://www.lbc.co.uk/article/iran-war-cyprus-starmer-bomb-5HjdTs4_2/", "tone": -3.8, "date": "2026-03-05", "country": "UK", "geo": "Fairford, Gloucestershire, United Kingdom", "lat": 51.7, "lng": -1.783, "type": "CONFLICT", "mentions": 1}, {"title": "BRITAIN", "url": "https://www.lbc.co.uk/article/iran-war-cyprus-starmer-bomb-5HjdTs4_2/", "tone": -3.8, "date": "2026-03-05", "country": "IR", "geo": "Iran", "lat": 32.0, "lng": 53.0, "type": "CONFLICT", "mentions": 4}, {"title": "INDUSTRY \u2014 IRAN", "url": "https://www.globalconstructionreview.com/air-strikes-leave-200-russian-workers-stranded-at-iranian-nuclear-power-site/", "tone": -3.7, "date": "2026-03-05", "country": "IR", "geo": "Bushehr, Bushehr, Iran", "lat": 28.968, "lng": 50.839, "type": "POLITICAL", "mentions": 3}, {"title": "VILLAGE \u2014 IRAN", "url": "https://www.rediff.com/news/report/5families-hopeful-for-kin-stranded-in-iran/20260305.htm", "tone": -3.7, "date": "2026-03-05", "country": "IR", "geo": "Tehran, Tehran, Iran", "lat": 35.75, "lng": 51.515, "type": "POLITICAL", "mentions": 4}, {"title": "VILLAGE \u2014 IRAN", "url": "https://www.rediff.com/news/report/5families-hopeful-for-kin-stranded-in-iran/20260305.htm", "tone": -3.7, "date": "2026-03-05", "country": "IN", "geo": "India", "lat": 20.0, "lng": 77.0, "type": "POLITICAL", "mentions": 6}, {"title": "UNITED KINGDOM \u2014 CYPRUS", "url": "https://www.middleeasteye.net/live-blog/live-blog-update/uk-says-drone-attack-cyprus-base-was-not-launched-iran", "tone": -3.7, "date": "2026-03-05", "country": "UK", "geo": "London, London, City of, United Kingdom", "lat": 51.5, "lng": -0.117, "type": "CONFLICT", "mentions": 10}, {"title": "UNITED KINGDOM \u2014 CYPRUS", "url": "https://www.middleeasteye.net/live-blog/live-blog-update/uk-says-drone-attack-cyprus-base-was-not-launched-iran", "tone": -3.7, "date": "2026-03-05", "country": "UK", "geo": "London, London, City of, United Kingdom", "lat": 51.5, "lng": -0.117, "type": "CONFLICT", "mentions": 2}, {"title": "UNITED KINGDOM \u2014 CYPRUS", "url": "https://www.middleeasteye.net/live-blog/live-blog-update/uk-says-drone-attack-cyprus-base-was-not-launched-iran", "tone": -3.7, "date": "2026-03-05", "country": "CY", "geo": "Cyprus", "lat": 35.0, "lng": 33.0, "type": "CONFLICT", "mentions": 8}, {"title": " \u2014 UNITED KINGDOM", "url": "https://www.mirror.co.uk/money/brewdogs-james-watt-admits-many-36821805", "tone": -3.5, "date": "2026-03-05", "country": "UK", "geo": "Ellon, Aberdeenshire, United Kingdom", "lat": 57.35, "lng": -2.083, "type": "CONFLICT", "mentions": 2}, {"title": " \u2014 UNITED KINGDOM", "url": "https://www.mirror.co.uk/money/brewdogs-james-watt-admits-many-36821805", "tone": -3.5, "date": "2026-03-05", "country": "UK", "geo": "Lanarkshire, South Lanarkshire, United Kingdom", "lat": 55.583, "lng": -3.833, "type": "CONFLICT", "mentions": 4}, {"title": "FRANCE \u2014 AZERBAIJAN", "url": "https://www.trend.az/azerbaijan/politics/4161381.html", "tone": -3.5, "date": "2026-03-05", "country": "IR", "geo": "Shakarabad, Lorestan, Iran", "lat": 33.59, "lng": 49.008, "type": "POLITICAL", "mentions": 10}, {"title": "UNITED KINGDOM", "url": "https://www.mirror.co.uk/money/brewdogs-james-watt-admits-many-36821805", "tone": -3.5, "date": "2026-03-05", "country": "UK", "geo": "Aberdeenshire, Aberdeenshire, United Kingdom", "lat": 57.167, "lng": -2.667, "type": "CONFLICT", "mentions": 4}, {"title": "UNITED KINGDOM", "url": "https://www.mirror.co.uk/money/brewdogs-james-watt-admits-many-36821805", "tone": -3.5, "date": "2026-03-05", "country": "UK", "geo": "Lanarkshire, South Lanarkshire, United Kingdom", "lat": 55.583, "lng": -3.833, "type": "CONFLICT", "mentions": 2}, {"title": "UNITED KINGDOM", "url": "https://www.mirror.co.uk/money/brewdogs-james-watt-admits-many-36821805", "tone": -3.5, "date": "2026-03-05", "country": "UK", "geo": "Lanarkshire, South Lanarkshire, United Kingdom", "lat": 55.583, "lng": -3.833, "type": "CONFLICT", "mentions": 2}, {"title": " \u2014 POLICE", "url": "https://www.rediff.com/news/report/5woman-head-constable-suicide-in-vadodara/20260305.htm", "tone": -3.1, "date": "2026-03-05", "country": "IN", "geo": "Banaskantha, Gujarat, India", "lat": 24.25, "lng": 72.5, "type": "POLITICAL", "mentions": 5}, {"title": " \u2014 POLICE", "url": "https://www.rediff.com/news/report/5woman-head-constable-suicide-in-vadodara/20260305.htm", "tone": -3.1, "date": "2026-03-05", "country": "IN", "geo": "Banaskantha, Gujarat, India", "lat": 24.25, "lng": 72.5, "type": "POLITICAL", "mentions": 10}, {"title": " \u2014 SABAH", "url": "https://www.theborneopost.com/2026/03/05/warisan-man-slams-minister-for-urging-sabah-to-take-gentle-stance-on-petronas/", "tone": -3.1, "date": "2026-03-05", "country": "MY", "geo": "Borneo, Malaysia (general), Malaysia", "lat": 1.0, "lng": 114.0, "type": "POLITICAL", "mentions": 4}, {"title": " \u2014 SARAWAK", "url": "https://www.theborneopost.com/2026/03/05/warisan-man-slams-minister-for-urging-sabah-to-take-gentle-stance-on-petronas/", "tone": -3.1, "date": "2026-03-05", "country": "MY", "geo": "Borneo, Malaysia (general), Malaysia", "lat": 1.0, "lng": 114.0, "type": "POLITICAL", "mentions": 2}, {"title": " \u2014 SABAH", "url": "https://www.theborneopost.com/2026/03/05/warisan-man-slams-minister-for-urging-sabah-to-take-gentle-stance-on-petronas/", "tone": -3.1, "date": "2026-03-05", "country": "MY", "geo": "Borneo, Malaysia (general), Malaysia", "lat": 1.0, "lng": 114.0, "type": "POLITICAL", "mentions": 10}, {"title": "POLICE", "url": "https://www.rediff.com/news/report/5woman-head-constable-suicide-in-vadodara/20260305.htm", "tone": -3.1, "date": "2026-03-05", "country": "IN", "geo": "Banaskantha, Gujarat, India", "lat": 24.25, "lng": 72.5, "type": "POLITICAL", "mentions": 3}, {"title": "POLICE", "url": "https://www.rediff.com/news/report/5woman-head-constable-suicide-in-vadodara/20260305.htm", "tone": -3.1, "date": "2026-03-05", "country": "IN", "geo": "Banaskantha, Gujarat, India", "lat": 24.25, "lng": 72.5, "type": "POLITICAL", "mentions": 3}, {"title": "POLICE", "url": "https://www.rediff.com/news/report/5woman-head-constable-suicide-in-vadodara/20260305.htm", "tone": -3.1, "date": "2026-03-05", "country": "IN", "geo": "Vadodara, Gujarat, India", "lat": 22.3, "lng": 73.2, "type": "POLITICAL", "mentions": 2}, {"title": "BAHRAIN \u2014 UNITED ARAB EMIRATES", "url": "https://www.lbc.co.uk/article/spain-deploys-its-most-advanced-frigate-to-protect-cyprus-5HjdTry_2/", "tone": -2.9, "date": "2026-03-05", "country": "IR", "geo": "Iran", "lat": 32.0, "lng": 53.0, "type": "CONFLICT", "mentions": 1}, {"title": "PROFESSOR \u2014 THE NETHERLAND", "url": "https://www.sej.org/headlines/sea-higher-we-thought-and-millions-more-are-risk-study", "tone": -2.9, "date": "2026-03-05", "country": "NL", "geo": "Wageningen, Gelderland, Netherlands", "lat": 51.973, "lng": 5.668, "type": "POLITICAL", "mentions": 8}, {"title": "SPAIN", "url": "https://www.dailyrecord.co.uk/news/scottish-news/military-planes-spotted-prestwick-airport-36821599", "tone": -2.9, "date": "2026-03-05", "country": "FR", "geo": "France", "lat": 46.0, "lng": 2.0, "type": "CONFLICT", "mentions": 1}, {"title": "SPAIN", "url": "https://www.dailyrecord.co.uk/news/scottish-news/military-planes-spotted-prestwick-airport-36821599", "tone": -2.9, "date": "2026-03-05", "country": "US", "geo": "United States", "lat": 39.828, "lng": -98.579, "type": "CONFLICT", "mentions": 1}, {"title": "SPAIN \u2014 FRANCE", "url": "https://www.hometownregister.com/news/national/wary-european-states-pledge-military-aid-for-cyprus-gulf/article_96ac74d6-e0a5-5f95-96a6-1be14ce12ab3.html", "tone": -2.9, "date": "2026-03-05", "country": "SP", "geo": "Madrid, Madrid, Spain", "lat": 40.4, "lng": -3.683, "type": "POLITICAL", "mentions": 4}, {"title": "EUROPE \u2014 BRITAIN", "url": "https://www.yahoo.com/news/articles/wary-european-states-pledge-military-122708654.html", "tone": -2.9, "date": "2026-03-05", "country": "UK", "geo": "United Kingdom", "lat": 54.0, "lng": -4.0, "type": "POLITICAL", "mentions": 4}, {"title": "FRENCH \u2014 CYPRUS", "url": "https://www.yahoo.com/news/articles/wary-european-states-pledge-military-122708654.html", "tone": -2.9, "date": "2026-03-05", "country": "FR", "geo": "Paris, France (general), France", "lat": 48.867, "lng": 2.333, "type": "POLITICAL", "mentions": 4}, {"title": "FRENCH \u2014 CYPRUS", "url": "https://www.yahoo.com/news/articles/wary-european-states-pledge-military-122708654.html", "tone": -2.9, "date": "2026-03-05", "country": "FR", "geo": "Paris, France (general), France", "lat": 48.867, "lng": 2.333, "type": "POLITICAL", "mentions": 4}, {"title": "FRENCH \u2014 CYPRUS", "url": "https://www.yahoo.com/news/articles/wary-european-states-pledge-military-122708654.html", "tone": -2.9, "date": "2026-03-05", "country": "FR", "geo": "Paris, France (general), France", "lat": 48.867, "lng": 2.333, "type": "POLITICAL", "mentions": 12}, {"title": "UNITED KINGDOM \u2014 FRENCH", "url": "https://www.lbc.co.uk/article/spain-deploys-its-most-advanced-frigate-to-protect-cyprus-5HjdTry_2/", "tone": -2.9, "date": "2026-03-05", "country": "UK", "geo": "United Kingdom", "lat": 54.0, "lng": -4.0, "type": "POLITICAL", "mentions": 4}, {"title": " \u2014 EGYPT", "url": "https://www.yahoo.com/news/articles/family-pierce-county-man-killed-131500463.html", "tone": -2.8, "date": "2026-03-05", "country": "EG", "geo": "Egypt", "lat": 27.0, "lng": 30.0, "type": "POLITICAL", "mentions": 4}, {"title": "INDUSTRY \u2014 AMERICAN", "url": "https://www.cnn.com/2026/03/05/health/nih-scientists-work-kff-health-news", "tone": -2.8, "date": "2026-03-05", "country": "US", "geo": "Bethesda, Maryland, United States", "lat": 38.981, "lng": -77.1, "type": "POLITICAL", "mentions": 6}, {"title": "DETECTIVE", "url": "https://www.yahoo.com/news/articles/family-pierce-county-man-killed-131500463.html", "tone": -2.8, "date": "2026-03-05", "country": "US", "geo": "Kentucky, United States", "lat": 37.669, "lng": -84.651, "type": "POLITICAL", "mentions": 6}, {"title": "SCIENTIST \u2014 ADMINISTRATION", "url": "https://www.cnn.com/2026/03/05/health/nih-scientists-work-kff-health-news", "tone": -2.8, "date": "2026-03-05", "country": "US", "geo": "Maryland, United States", "lat": 39.072, "lng": -76.79, "type": "POLITICAL", "mentions": 4}, {"title": "SCIENTIST \u2014 UNITED STATES", "url": "https://www.cnn.com/2026/03/05/health/nih-scientists-work-kff-health-news", "tone": -2.8, "date": "2026-03-05", "country": "US", "geo": "National Institutes Of Health, Maryland, United States", "lat": 38.998, "lng": -77.102, "type": "POLITICAL", "mentions": 4}, {"title": "COLLEGE", "url": "https://www.yahoo.com/news/articles/family-pierce-county-man-killed-131500463.html", "tone": -2.8, "date": "2026-03-05", "country": "MX", "geo": "Cabo San Lucas, Baja California Sur, Mexico", "lat": 22.883, "lng": -109.9, "type": "POLITICAL", "mentions": 3}, {"title": "COLLEGE", "url": "https://www.yahoo.com/news/articles/family-pierce-county-man-killed-131500463.html", "tone": -2.8, "date": "2026-03-05", "country": "MX", "geo": "Cabo San Lucas, Baja California Sur, Mexico", "lat": 22.883, "lng": -109.9, "type": "POLITICAL", "mentions": 3}, {"title": "EGYPT", "url": "https://www.yahoo.com/news/articles/family-pierce-county-man-killed-131500463.html", "tone": -2.8, "date": "2026-03-05", "country": "EG", "geo": "Egypt", "lat": 27.0, "lng": 30.0, "type": "POLITICAL", "mentions": 8}, {"title": "EGYPT", "url": "https://www.yahoo.com/news/articles/family-pierce-county-man-killed-131500463.html", "tone": -2.8, "date": "2026-03-05", "country": "EG", "geo": "Egypt", "lat": 27.0, "lng": 30.0, "type": "POLITICAL", "mentions": 4}, {"title": "EGYPT", "url": "https://www.yahoo.com/news/articles/family-pierce-county-man-killed-131500463.html", "tone": -2.8, "date": "2026-03-05", "country": "EG", "geo": "Egypt", "lat": 27.0, "lng": 30.0, "type": "POLITICAL", "mentions": 4}, {"title": "EGYPT", "url": "https://www.yahoo.com/news/articles/family-pierce-county-man-killed-131500463.html", "tone": -2.8, "date": "2026-03-05", "country": "EG", "geo": "Egypt", "lat": 27.0, "lng": 30.0, "type": "POLITICAL", "mentions": 2}, {"title": "EGYPT", "url": "https://www.yahoo.com/news/articles/family-pierce-county-man-killed-131500463.html", "tone": -2.8, "date": "2026-03-05", "country": "EG", "geo": "Egypt", "lat": 27.0, "lng": 30.0, "type": "CONFLICT", "mentions": 4}, {"title": "EGYPT \u2014 COLLEGE", "url": "https://www.yahoo.com/news/articles/family-pierce-county-man-killed-131500463.html", "tone": -2.8, "date": "2026-03-05", "country": "EG", "geo": "Egypt", "lat": 27.0, "lng": 30.0, "type": "POLITICAL", "mentions": 2}, {"title": " \u2014 ABU DHABI", "url": "https://english.news.cn/europe/20260305/eef74d0d0b1b4d1cba2ebe8e1c529d45/c.html", "tone": -2.7, "date": "2026-03-05", "country": "AE", "geo": "United Arab Emirates", "lat": 24.0, "lng": 54.0, "type": "POLITICAL", "mentions": 16}, {"title": " \u2014 ABU DHABI", "url": "https://english.news.cn/europe/20260305/eef74d0d0b1b4d1cba2ebe8e1c529d45/c.html", "tone": -2.7, "date": "2026-03-05", "country": "UP", "geo": "Ukraine", "lat": 49.0, "lng": 32.0, "type": "POLITICAL", "mentions": 4}, {"title": " \u2014 ABU DHABI", "url": "https://www.thehindubusinessline.com/economy/logistics/cochin-international-airport-to-handle-special-cargo-flight-to-abu-dhabi/article70707449.ece", "tone": -2.7, "date": "2026-03-05", "country": "IN", "geo": "Kerala, Kerala, India", "lat": 10.0, "lng": 76.5, "type": "POLITICAL", "mentions": 10}, {"title": " \u2014 DETECTIVE", "url": "https://www.fox10phoenix.com/news/nancy-guthrie-disappearance-day-33-latest-updates", "tone": -2.7, "date": "2026-03-05", "country": "US", "geo": "Pima County, Arizona, United States", "lat": 32.0, "lng": -112.003, "type": "POLITICAL", "mentions": 8}, {"title": " \u2014 KERALA", "url": "https://www.thehindubusinessline.com/economy/logistics/cochin-international-airport-to-handle-special-cargo-flight-to-abu-dhabi/article70707449.ece", "tone": -2.7, "date": "2026-03-05", "country": "IN", "geo": "Cochin, Kerala, India", "lat": 9.967, "lng": 76.233, "type": "POLITICAL", "mentions": 6}, {"title": "ABU DHABI", "url": "https://www.thehindubusinessline.com/economy/logistics/cochin-international-airport-to-handle-special-cargo-flight-to-abu-dhabi/article70707449.ece", "tone": -2.7, "date": "2026-03-05", "country": "IN", "geo": "Cochin, Kerala, India", "lat": 9.967, "lng": 76.233, "type": "POLITICAL", "mentions": 10}, {"title": "ABU DHABI", "url": "https://english.news.cn/europe/20260305/eef74d0d0b1b4d1cba2ebe8e1c529d45/c.html", "tone": -2.7, "date": "2026-03-05", "country": "AE", "geo": "United Arab Emirates", "lat": 24.0, "lng": 54.0, "type": "POLITICAL", "mentions": 16}, {"title": "ABU DHABI", "url": "https://english.news.cn/europe/20260305/eef74d0d0b1b4d1cba2ebe8e1c529d45/c.html", "tone": -2.7, "date": "2026-03-05", "country": "UP", "geo": "Ukraine", "lat": 49.0, "lng": 32.0, "type": "POLITICAL", "mentions": 4}, {"title": "ABU DHABI", "url": "https://www.thehindubusinessline.com/economy/logistics/cochin-international-airport-to-handle-special-cargo-flight-to-abu-dhabi/article70707449.ece", "tone": -2.7, "date": "2026-03-05", "country": "IN", "geo": "Cochin, Kerala, India", "lat": 9.967, "lng": 76.233, "type": "POLITICAL", "mentions": 10}, {"title": "EXPORTER \u2014 KOCHI", "url": "https://www.thehindubusinessline.com/economy/logistics/cochin-international-airport-to-handle-special-cargo-flight-to-abu-dhabi/article70707449.ece", "tone": -2.7, "date": "2026-03-05", "country": "IN", "geo": "Kerala, Kerala, India", "lat": 10.0, "lng": 76.5, "type": "POLITICAL", "mentions": 4}, {"title": "CHINA \u2014 SCHOOL", "url": "https://chinaeconomicreview.com/chinas-demographic-decline-hits-primary-schools/", "tone": -2.7, "date": "2026-03-05", "country": "CH", "geo": "China", "lat": 35.0, "lng": 105.0, "type": "POLITICAL", "mentions": 10}, {"title": "CYPRUS \u2014 BRITAIN", "url": "https://www.thenorthernecho.co.uk/news/national/25910999.starmer-update-middle-east-war-defence-secretary-travels-cyprus/", "tone": -2.6, "date": "2026-03-05", "country": "GR", "geo": "Akrotiri, Perifereia Notiou Aigaiou, Greece", "lat": 36.358, "lng": 25.396, "type": "POLITICAL", "mentions": 18}, {"title": "CYPRUS \u2014 BRITAIN", "url": "https://www.thenorthernecho.co.uk/news/national/25910999.starmer-update-middle-east-war-defence-secretary-travels-cyprus/", "tone": -2.6, "date": "2026-03-05", "country": "GR", "geo": "Akrotiri, Perifereia Notiou Aigaiou, Greece", "lat": 36.358, "lng": 25.396, "type": "POLITICAL", "mentions": 6}, {"title": "CYPRUS \u2014 UNITED KINGDOM", "url": "https://www.thenorthernecho.co.uk/news/national/25910999.starmer-update-middle-east-war-defence-secretary-travels-cyprus/", "tone": -2.6, "date": "2026-03-05", "country": "UK", "geo": "Heathrow, Hillingdon, United Kingdom", "lat": 51.467, "lng": -0.45, "type": "POLITICAL", "mentions": 12}, {"title": "CYPRUS \u2014 GREECE", "url": "https://www.thenorthernecho.co.uk/news/national/25910999.starmer-update-middle-east-war-defence-secretary-travels-cyprus/", "tone": -2.6, "date": "2026-03-05", "country": "GR", "geo": "Akrotiri, Perifereia Notiou Aigaiou, Greece", "lat": 36.358, "lng": 25.396, "type": "POLITICAL", "mentions": 6}, {"title": "CYPRUS \u2014 ISRAELI", "url": "https://www.thenorthernecho.co.uk/news/national/25910999.starmer-update-middle-east-war-defence-secretary-travels-cyprus/", "tone": -2.6, "date": "2026-03-05", "country": "CY", "geo": "Limassol, Limassol, Cyprus", "lat": 34.675, "lng": 33.033, "type": "POLITICAL", "mentions": 18}, {"title": "BRITAIN \u2014 CYPRUS", "url": "https://www.thenorthernecho.co.uk/news/national/25910999.starmer-update-middle-east-war-defence-secretary-travels-cyprus/", "tone": -2.6, "date": "2026-03-05", "country": "GR", "geo": "Akrotiri, Perifereia Notiou Aigaiou, Greece", "lat": 36.358, "lng": 25.396, "type": "POLITICAL", "mentions": 18}, {"title": "BRITAIN \u2014 CYPRUS", "url": "https://www.thenorthernecho.co.uk/news/national/25910999.starmer-update-middle-east-war-defence-secretary-travels-cyprus/", "tone": -2.6, "date": "2026-03-05", "country": "GR", "geo": "Akrotiri, Perifereia Notiou Aigaiou, Greece", "lat": 36.358, "lng": 25.396, "type": "POLITICAL", "mentions": 6}, {"title": "CYPRIOT \u2014 UNITED KINGDOM", "url": "https://www.thenorthernecho.co.uk/news/national/25910999.starmer-update-middle-east-war-defence-secretary-travels-cyprus/", "tone": -2.5, "date": "2026-03-05", "country": "UK", "geo": "Heathrow, Hillingdon, United Kingdom", "lat": 51.467, "lng": -0.45, "type": "POLITICAL", "mentions": 35}, {"title": "CYPRUS \u2014 DEFENCE SECRETARY", "url": "https://www.thenorthernecho.co.uk/news/national/25910999.starmer-update-middle-east-war-defence-secretary-travels-cyprus/", "tone": -2.5, "date": "2026-03-05", "country": "CY", "geo": "Limassol, Limassol, Cyprus", "lat": 34.675, "lng": 33.033, "type": "POLITICAL", "mentions": 71}, {"title": "CYPRUS \u2014 GREECE", "url": "https://www.thenorthernecho.co.uk/news/national/25910999.starmer-update-middle-east-war-defence-secretary-travels-cyprus/", "tone": -2.5, "date": "2026-03-05", "country": "GR", "geo": "Akrotiri, Perifereia Notiou Aigaiou, Greece", "lat": 36.358, "lng": 25.396, "type": "POLITICAL", "mentions": 35}, {"title": " \u2014 PRESIDENT", "url": "https://www.theatlantic.com/podcasts/2026/03/iran-war-trump-jeanne-shaheen-congress/686233/", "tone": -2.3, "date": "2026-03-05", "country": "IS", "geo": "Jerusalem, Israel (general), Israel", "lat": 31.767, "lng": 35.233, "type": "POLITICAL", "mentions": 3}, {"title": "TORONTO", "url": "https://www.thestar.com/news/morning-digest/new-twists-in-torontos-mayoral-race-house-prices-have-fallen-again/article_c6a3afa1-443f-4100-8de1-506cb40c048d.html", "tone": -2.3, "date": "2026-03-05", "country": "CA", "geo": "Queens, New Brunswick, Canada", "lat": 45.833, "lng": -66.0, "type": "POLITICAL", "mentions": 2}, {"title": "CANADA \u2014 STUDENT", "url": "https://www.thestar.com/news/morning-digest/new-twists-in-torontos-mayoral-race-house-prices-have-fallen-again/article_c6a3afa1-443f-4100-8de1-506cb40c048d.html", "tone": -2.3, "date": "2026-03-05", "country": "CA", "geo": "Queens, New Brunswick, Canada", "lat": 45.833, "lng": -66.0, "type": "CONFLICT", "mentions": 6}, {"title": "CONSTITUENT", "url": "https://www.theatlantic.com/podcasts/2026/03/iran-war-trump-jeanne-shaheen-congress/686233/", "tone": -2.3, "date": "2026-03-05", "country": "US", "geo": "New Hampshire, United States", "lat": 43.411, "lng": -71.565, "type": "POLITICAL", "mentions": 3}, {"title": "UNIVERSITY \u2014 JERUSALEM", "url": "https://www.cathstan.org/us-world/amid-u-s-and-israel-iran-war-palestinian-sisters-find-refuge-in-prayer-at-jerusalem-hospital", "tone": -2.3, "date": "2026-03-05", "country": "IS", "geo": "Jerusalem, Israel (general), Israel", "lat": 31.767, "lng": 35.233, "type": "POLITICAL", "mentions": 6}, {"title": " \u2014 FRANCE", "url": "https://www.euronews.com/2026/03/05/what-to-know-about-frances-charles-de-gaulle-aircraft-carrier-and-its-mediterranean-deploy", "tone": -2.2, "date": "2026-03-05", "country": "FR", "geo": "Giat, Auvergne, France", "lat": 45.801, "lng": 2.469, "type": "POLITICAL", "mentions": 5}, {"title": " \u2014 FRANCE", "url": "https://www.euronews.com/2026/03/05/what-to-know-about-frances-charles-de-gaulle-aircraft-carrier-and-its-mediterranean-deploy", "tone": -2.2, "date": "2026-03-05", "country": "FR", "geo": "Giat, Auvergne, France", "lat": 45.801, "lng": 2.469, "type": "POLITICAL", "mentions": 5}, {"title": "FRENCH \u2014 FRANCE", "url": "https://www.euronews.com/2026/03/05/what-to-know-about-frances-charles-de-gaulle-aircraft-carrier-and-its-mediterranean-deploy", "tone": -2.2, "date": "2026-03-05", "country": "CY", "geo": "Cyprus", "lat": 35.0, "lng": 33.0, "type": "POLITICAL", "mentions": 4}, {"title": "FRENCH", "url": "https://www.euronews.com/2026/03/05/what-to-know-about-frances-charles-de-gaulle-aircraft-carrier-and-its-mediterranean-deploy", "tone": -2.2, "date": "2026-03-05", "country": "CY", "geo": "Cyprus", "lat": 35.0, "lng": 33.0, "type": "POLITICAL", "mentions": 6}, {"title": "NAVY \u2014 BRITISH", "url": "https://www.myjoyonline.com/first-uk-government-flight-for-britons-stuck-in-middle-east-yet-to-take-off/", "tone": -2.1, "date": "2026-02-26", "country": "CY", "geo": "Cyprus", "lat": 35.0, "lng": 33.0, "type": "POLITICAL", "mentions": 3}, {"title": " \u2014 UNITED KINGDOM", "url": "https://www.mirror.co.uk/news/politics/key-migration-changes-shabana-mahmood-36819871", "tone": -2.1, "date": "2026-03-05", "country": "UK", "geo": "Midlands, Leicestershire, United Kingdom", "lat": 52.75, "lng": -1.5, "type": "POLITICAL", "mentions": 6}, {"title": " \u2014 UNITED KINGDOM", "url": "https://www.mirror.co.uk/news/politics/key-migration-changes-shabana-mahmood-36819871", "tone": -2.1, "date": "2026-03-05", "country": "UK", "geo": "Midlands, Leicestershire, United Kingdom", "lat": 52.75, "lng": -1.5, "type": "POLITICAL", "mentions": 6}, {"title": " \u2014 UNITED KINGDOM", "url": "https://www.mirror.co.uk/news/uk-news/met-office-issues-snow-warning-36821741", "tone": -2.1, "date": "2026-03-05", "country": "UK", "geo": "Northern Ireland, Craigavon, United Kingdom", "lat": 54.5, "lng": -6.5, "type": "POLITICAL", "mentions": 5}, {"title": "BRUSSELS", "url": "https://www.aol.com/articles/exclusive-article-five-not-table-110151280.html", "tone": -2.1, "date": "2026-03-05", "country": "IR", "geo": "Iran", "lat": 32.0, "lng": 53.0, "type": "POLITICAL", "mentions": 4}, {"title": "BUSINESS", "url": "https://www.geo.tv/latest/654166-gul-plaza-fire-how-many-more-warnings-must-pass-before-accountability-follows", "tone": -2.1, "date": "2026-03-05", "country": "PK", "geo": "Karachi, Sindh, Pakistan", "lat": 24.867, "lng": 67.05, "type": "CONFLICT", "mentions": 10}, {"title": "EMPLOYER \u2014 CYPRUS", "url": "https://cyprus-mail.com/2026/03/05/employers-federation-head-calls-for-calm-to-protect-cyprus-economy", "tone": -2.1, "date": "2026-03-05", "country": "CY", "geo": "Larnaca, Larnaca, Cyprus", "lat": 34.917, "lng": 33.629, "type": "POLITICAL", "mentions": 10}, {"title": "EMPLOYER \u2014 CYPRUS", "url": "https://cyprus-mail.com/2026/03/05/employers-federation-head-calls-for-calm-to-protect-cyprus-economy", "tone": -2.1, "date": "2026-03-05", "country": "CY", "geo": "Paphos International Airport, Paphos, Cyprus", "lat": 34.717, "lng": 32.5, "type": "POLITICAL", "mentions": 10}, {"title": "TRADER \u2014 GOVERNMENT", "url": "https://www.geo.tv/latest/654166-gul-plaza-fire-how-many-more-warnings-must-pass-before-accountability-follows", "tone": -2.1, "date": "2026-03-05", "country": "PK", "geo": "Karachi, Sindh, Pakistan", "lat": 24.867, "lng": 67.05, "type": "POLITICAL", "mentions": 5}, {"title": "TRADER \u2014 GOVERNMENT", "url": "https://www.geo.tv/latest/654166-gul-plaza-fire-how-many-more-warnings-must-pass-before-accountability-follows", "tone": -2.1, "date": "2026-03-05", "country": "PK", "geo": "Karachi, Sindh, Pakistan", "lat": 24.867, "lng": 67.05, "type": "POLITICAL", "mentions": 5}, {"title": "DEPUTY", "url": "https://www.geo.tv/latest/654166-gul-plaza-fire-how-many-more-warnings-must-pass-before-accountability-follows", "tone": -2.1, "date": "2026-03-05", "country": "PK", "geo": "Karachi, Sindh, Pakistan", "lat": 24.867, "lng": 67.05, "type": "POLITICAL", "mentions": 10}, {"title": "NATIONALS \u2014 GOVERNMENT", "url": "https://www.mirror.co.uk/news/politics/key-migration-changes-shabana-mahmood-36819871", "tone": -2.1, "date": "2026-03-05", "country": "UK", "geo": "London, London, City of, United Kingdom", "lat": 51.5, "lng": -0.117, "type": "POLITICAL", "mentions": 2}, {"title": "NATIONALS \u2014 GOVERNMENT", "url": "https://www.mirror.co.uk/news/politics/key-migration-changes-shabana-mahmood-36819871", "tone": -2.1, "date": "2026-03-05", "country": "UK", "geo": "Midlands, Leicestershire, United Kingdom", "lat": 52.75, "lng": -1.5, "type": "POLITICAL", "mentions": 3}, {"title": "CYPRUS \u2014 EMPLOYER", "url": "https://cyprus-mail.com/2026/03/05/employers-federation-head-calls-for-calm-to-protect-cyprus-economy", "tone": -2.1, "date": "2026-03-05", "country": "CY", "geo": "Larnaca, Larnaca, Cyprus", "lat": 34.917, "lng": 33.629, "type": "POLITICAL", "mentions": 10}, {"title": "SPAIN", "url": "https://www.aol.com/articles/exclusive-article-five-not-table-110151280.html", "tone": -2.1, "date": "2026-03-05", "country": "TU", "geo": "Turkey", "lat": 39.059, "lng": 34.912, "type": "POLITICAL", "mentions": 2}, {"title": "SPAIN \u2014 MILITARY", "url": "https://www.aol.com/articles/exclusive-article-five-not-table-110151280.html", "tone": -2.1, "date": "2026-03-05", "country": "TU", "geo": "Turkey", "lat": 39.059, "lng": 34.912, "type": "POLITICAL", "mentions": 1}, {"title": "UNITED KINGDOM", "url": "https://www.mirror.co.uk/news/politics/key-migration-changes-shabana-mahmood-36819871", "tone": -2.1, "date": "2026-03-05", "country": "UK", "geo": "Midlands, Leicestershire, United Kingdom", "lat": 52.75, "lng": -1.5, "type": "POLITICAL", "mentions": 6}, {"title": "UNITED KINGDOM", "url": "https://www.mirror.co.uk/news/uk-news/met-office-issues-snow-warning-36821741", "tone": -2.1, "date": "2026-03-05", "country": "UK", "geo": "Northern Ireland, Craigavon, United Kingdom", "lat": 54.5, "lng": -6.5, "type": "POLITICAL", "mentions": 5}, {"title": "UNITED KINGDOM", "url": "https://www.mirror.co.uk/news/politics/key-migration-changes-shabana-mahmood-36819871", "tone": -2.1, "date": "2026-03-05", "country": "UK", "geo": "Midlands, Leicestershire, United Kingdom", "lat": 52.75, "lng": -1.5, "type": "POLITICAL", "mentions": 6}, {"title": "DEMOCRATIC PARTY", "url": "https://www.theguardian.com/commentisfree/2026/mar/05/kamala-harris-election", "tone": -2.0, "date": "2025-03-05", "country": "US", "geo": "White House, District of Columbia, United States", "lat": 38.895, "lng": -77.036, "type": "CONFLICT", "mentions": 3}, {"title": "UNITED STATES \u2014 DEMOCRATIC PARTY", "url": "https://www.theguardian.com/commentisfree/2026/mar/05/kamala-harris-election", "tone": -2.0, "date": "2025-03-05", "country": "US", "geo": "Michigan, United States", "lat": 43.35, "lng": -84.56, "type": "CONFLICT", "mentions": 2}, {"title": "MICHIGAN \u2014 DEMOCRATIC PARTY", "url": "https://www.theguardian.com/commentisfree/2026/mar/05/kamala-harris-election", "tone": -2.0, "date": "2025-03-05", "country": "US", "geo": "Michigan, United States", "lat": 43.35, "lng": -84.56, "type": "CONFLICT", "mentions": 5}, {"title": " \u2014 CYPRUS", "url": "https://www.irishnews.com/news/uk/starmer-to-update-on-middle-east-war-as-defence-secretary-travels-to-cyprus-QIWKBILTZBICREQUQVKXGKD24I/", "tone": -2.0, "date": "2026-03-05", "country": "GR", "geo": "Akrotiri, Perifereia Notiou Aigaiou, Greece", "lat": 36.358, "lng": 25.396, "type": "POLITICAL", "mentions": 3}, {"title": " \u2014 NEVADA", "url": "https://www.reviewjournal.com/local/weather/hang-on-strong-winds-blowing-into-las-vegas-valley-3715230/", "tone": -2.0, "date": "2026-03-05", "country": "US", "geo": "Clark County, Nevada, United States", "lat": 36.0, "lng": -114.876, "type": "CONFLICT", "mentions": 10}, {"title": "AUSTRALIA \u2014 UNITED STATES", "url": "https://www.theguardian.com/commentisfree/2026/mar/05/kamala-harris-election", "tone": -2.0, "date": "2026-03-05", "country": "AS", "geo": "Australia", "lat": -25.0, "lng": 135.0, "type": "POLITICAL", "mentions": 4}, {"title": "COSTA RICAN \u2014 PANAMA", "url": "https://qcostarica.com/the-guachimanes/", "tone": -2.0, "date": "2026-03-05", "country": "CS", "geo": "Costa Rica", "lat": 10.0, "lng": -84.0, "type": "POLITICAL", "mentions": 8}, {"title": "CYPRUS", "url": "https://www.irishnews.com/news/uk/starmer-to-update-on-middle-east-war-as-defence-secretary-travels-to-cyprus-QIWKBILTZBICREQUQVKXGKD24I/", "tone": -2.0, "date": "2026-03-05", "country": "GR", "geo": "Akrotiri, Perifereia Notiou Aigaiou, Greece", "lat": 36.358, "lng": 25.396, "type": "POLITICAL", "mentions": 3}, {"title": "CYPRIOT \u2014 UNITED KINGDOM", "url": "https://www.irishnews.com/news/uk/starmer-to-update-on-middle-east-war-as-defence-secretary-travels-to-cyprus-QIWKBILTZBICREQUQVKXGKD24I/", "tone": -2.0, "date": "2026-03-05", "country": "UK", "geo": "Heathrow, Hillingdon, United Kingdom", "lat": 51.467, "lng": -0.45, "type": "POLITICAL", "mentions": 4}, {"title": "UNITED KINGDOM \u2014 CYPRIOT", "url": "https://www.irishnews.com/news/uk/starmer-to-update-on-middle-east-war-as-defence-secretary-travels-to-cyprus-QIWKBILTZBICREQUQVKXGKD24I/", "tone": -2.0, "date": "2026-03-05", "country": "UK", "geo": "Heathrow, Hillingdon, United Kingdom", "lat": 51.467, "lng": -0.45, "type": "POLITICAL", "mentions": 4}, {"title": " \u2014 DEFENSE MINIST", "url": "https://www.aa.com.tr/en/asia-pacific/russia-reports-prisoner-swap-with-ukraine-200-servicemen-exchanged/3851442", "tone": -1.9, "date": "2026-03-05", "country": "UP", "geo": "Kyiv, Kyyiv, Misto, Ukraine", "lat": 50.433, "lng": 30.517, "type": "POLITICAL", "mentions": 3}, {"title": "UNITED ARAB EMIRATES \u2014 IRAN", "url": "https://www.geo.tv/latest/654199-govt-dismisses-notification-claiming-temporary-suspension-of-all-port-entries-in-pakistan", "tone": -1.9, "date": "2026-03-05", "country": "SA", "geo": "Yanbu, Al Madinah, Saudi Arabia", "lat": 24.089, "lng": 38.064, "type": "POLITICAL", "mentions": 4}, {"title": "PRODUCER \u2014 UNITED ARAB EMIRATES", "url": "https://www.geo.tv/latest/654199-govt-dismisses-notification-claiming-temporary-suspension-of-all-port-entries-in-pakistan", "tone": -1.9, "date": "2026-03-05", "country": "SA", "geo": "Yanbu, Al Madinah, Saudi Arabia", "lat": 24.089, "lng": 38.064, "type": "POLITICAL", "mentions": 4}, {"title": "PRODUCER \u2014 IRAN", "url": "https://www.geo.tv/latest/654199-govt-dismisses-notification-claiming-temporary-suspension-of-all-port-entries-in-pakistan", "tone": -1.9, "date": "2026-03-05", "country": "SA", "geo": "Yanbu, Al Madinah, Saudi Arabia", "lat": 24.089, "lng": 38.064, "type": "POLITICAL", "mentions": 4}, {"title": "PRODUCER \u2014 IRAQ", "url": "https://www.geo.tv/latest/654199-govt-dismisses-notification-claiming-temporary-suspension-of-all-port-entries-in-pakistan", "tone": -1.9, "date": "2026-03-05", "country": "SA", "geo": "Yanbu, Al Madinah, Saudi Arabia", "lat": 24.089, "lng": 38.064, "type": "POLITICAL", "mentions": 4}, {"title": "PRODUCER \u2014 SAUDI ARABIA", "url": "https://www.geo.tv/latest/654199-govt-dismisses-notification-claiming-temporary-suspension-of-all-port-entries-in-pakistan", "tone": -1.9, "date": "2026-03-05", "country": "SA", "geo": "Yanbu, Al Madinah, Saudi Arabia", "lat": 24.089, "lng": 38.064, "type": "POLITICAL", "mentions": 5}, {"title": "EUROPE", "url": "https://www.lemonde.fr/en/opinion/article/2026/03/05/made-in-eu-an-antidote-to-deindustrialization_6751126_23.html", "tone": -1.9, "date": "2026-03-05", "country": "FR", "geo": "France", "lat": 46.0, "lng": 2.0, "type": "POLITICAL", "mentions": 5}, {"title": "FRANCE \u2014 IRAN", "url": "https://www.eurogamer.net/castlevania-belmonts-curse-is-not-a-roguelite", "tone": -1.9, "date": "2026-03-05", "country": "IR", "geo": "Iran", "lat": 32.0, "lng": 53.0, "type": "POLITICAL", "mentions": 4}, {"title": "BUSINESS", "url": "https://www.aol.com/articles/port-allen-residents-concerned-rumors-042319683.html", "tone": -1.8, "date": "2026-03-05", "country": "US", "geo": "Louisiana, United States", "lat": 31.18, "lng": -91.875, "type": "POLITICAL", "mentions": 8}, {"title": "RESIDENTS \u2014 BUSINESS", "url": "https://www.aol.com/articles/port-allen-residents-concerned-rumors-042319683.html", "tone": -1.8, "date": "2026-03-05", "country": "US", "geo": "Port Allen, Louisiana, United States", "lat": 30.452, "lng": -91.21, "type": "POLITICAL", "mentions": 4}, {"title": "RESIDENTS \u2014 BUSINESS", "url": "https://www.aol.com/articles/port-allen-residents-concerned-rumors-042319683.html", "tone": -1.8, "date": "2026-03-05", "country": "US", "geo": "Louisiana, United States", "lat": 31.18, "lng": -91.875, "type": "POLITICAL", "mentions": 6}, {"title": "GREAT BRITAIN", "url": "https://www.dailyrecord.co.uk/lifestyle/money/new-benefit-pensioners-health-issues-36820837", "tone": -1.8, "date": "2026-03-05", "country": "UK", "geo": "United Kingdom", "lat": 54.0, "lng": -4.0, "type": "POLITICAL", "mentions": 10}, {"title": " \u2014 POLICE", "url": "https://www.krtv.com/news/montana-and-regional-news/trending-news-thursday-march-5-2026", "tone": -1.7, "date": "2026-03-05", "country": "US", "geo": "Missoula, Montana, United States", "lat": 46.872, "lng": -113.994, "type": "CONFLICT", "mentions": 4}, {"title": " \u2014 NEW YORK CITY", "url": "https://www.gq.com/story/luke-fracher-men-of-taste", "tone": -1.7, "date": "2026-03-05", "country": "BE", "geo": "Belgium", "lat": 50.833, "lng": 4.0, "type": "POLITICAL", "mentions": 8}, {"title": " \u2014 UNITED STATES", "url": "https://www.newsweek.com/trump-regime-change-britain-starmer-iran-11610393", "tone": -1.7, "date": "2026-03-05", "country": "CM", "geo": "Cameroon", "lat": 6.0, "lng": 12.0, "type": "POLITICAL", "mentions": 2}, {"title": " \u2014 NATO", "url": "http://www.parisguardian.com/news/278903527/is-france-building-a-new-nato-nuclear-euroclub", "tone": -1.6, "date": "2026-02-26", "country": "SW", "geo": "Sweden", "lat": 62.0, "lng": 15.0, "type": "POLITICAL", "mentions": 3}, {"title": "NATO", "url": "http://www.parisguardian.com/news/278903527/is-france-building-a-new-nato-nuclear-euroclub", "tone": -1.6, "date": "2026-02-26", "country": "SW", "geo": "Sweden", "lat": 62.0, "lng": 15.0, "type": "POLITICAL", "mentions": 3}, {"title": " \u2014 NIGERIA", "url": "https://dailypost.ng/2026/03/05/be-careful-with-appointments-vdm-advises-igp-tunji-disu/", "tone": -1.6, "date": "2026-03-05", "country": "NI", "geo": "Buki, Kebbi, Nigeria", "lat": 11.709, "lng": 3.684, "type": "POLITICAL", "mentions": 6}, {"title": "INVESTOR \u2014 COLLEGE", "url": "https://www.apr.org/news/2026-03-05/shuttered-birmingham-southern-campus-to-find-new-life-with-the-u-s-coast-guard", "tone": -1.6, "date": "2026-03-05", "country": "US", "geo": "Alabama, United States", "lat": 32.799, "lng": -86.807, "type": "POLITICAL", "mentions": 10}, {"title": "COLLEGE", "url": "https://www.apr.org/news/2026-03-05/shuttered-birmingham-southern-campus-to-find-new-life-with-the-u-s-coast-guard", "tone": -1.6, "date": "2026-03-05", "country": "US", "geo": "Alabama, United States", "lat": 32.799, "lng": -86.807, "type": "POLITICAL", "mentions": 5}, {"title": "RETIRED", "url": "https://lasvegassun.com/news/2026/mar/05/dental-care-system-is-full-of-cavities-as-we-age/", "tone": -1.5, "date": "2026-03-05", "country": "US", "geo": "California, United States", "lat": 36.17, "lng": -119.746, "type": "POLITICAL", "mentions": 10}, {"title": "GRANGER \u2014 UNITED STATES", "url": "https://www.akron.com/articles/granger-trustees-hear-update-on-medina-county-stormwater-management-plan-updates/", "tone": -1.3, "date": "2026-03-05", "country": "US", "geo": "Ohio, United States", "lat": 40.374, "lng": -82.775, "type": "POLITICAL", "mentions": 6}, {"title": "UNITED KINGDOM", "url": "https://www.coventrytelegraph.net/news/coventry-news/coventry-ats-euromaster-garage-set-33535679", "tone": -1.3, "date": "2026-03-05", "country": "UK", "geo": "Warwickshire, Warwickshire, United Kingdom", "lat": 52.333, "lng": -1.583, "type": "POLITICAL", "mentions": 4}, {"title": "COMMUNITY", "url": "https://www.thehindu.com/news/national/assam/miya-muslims-not-enemies-of-bjp-says-himanta-biswa-sarma/article70707448.ece", "tone": -1.2, "date": "2026-03-05", "country": "IN", "geo": "Guwahati, Assam, India", "lat": 26.183, "lng": 91.733, "type": "POLITICAL", "mentions": 10}, {"title": "COMMUNITY", "url": "https://www.thehindu.com/news/national/assam/miya-muslims-not-enemies-of-bjp-says-himanta-biswa-sarma/article70707448.ece", "tone": -1.2, "date": "2026-03-05", "country": "IN", "geo": "Gauhati, Assam, India", "lat": 26.183, "lng": 91.733, "type": "POLITICAL", "mentions": 10}, {"title": "UNIVERSITY", "url": "https://www.theborneopost.com/2026/03/05/sarawak-sends-graduates-to-murdoch-university-for-vaccine-research/", "tone": -1.2, "date": "2026-03-05", "country": "ID", "geo": "Indonesia", "lat": -5.0, "lng": 120.0, "type": "POLITICAL", "mentions": 3}, {"title": "CHINA \u2014 RUSSIA", "url": "https://www.foxnews.com/us/us-scrambles-fighter-jets-russian-aircraft-detected-alaska-adiz", "tone": -1.1, "date": "2026-03-05", "country": "CH", "geo": "China", "lat": 35.0, "lng": 105.0, "type": "POLITICAL", "mentions": 8}, {"title": "UNITED ARAB EMIRATES \u2014 MANILA", "url": "https://english.news.cn/asiapacific/20260305/cb6a1e819e2c4a66a95c609e7248a46a/c.html", "tone": -1.0, "date": "2026-03-05", "country": "RP", "geo": "Manila, Manila, Philippines", "lat": 14.604, "lng": 120.982, "type": "POLITICAL", "mentions": 8}, {"title": "DUBAI \u2014 MANILA", "url": "https://english.news.cn/asiapacific/20260305/cb6a1e819e2c4a66a95c609e7248a46a/c.html", "tone": -1.0, "date": "2026-03-05", "country": "RP", "geo": "Manila, Manila, Philippines", "lat": 14.604, "lng": 120.982, "type": "POLITICAL", "mentions": 12}, {"title": " \u2014 VOTER", "url": "https://1011thebeat.iheart.com/featured/steve-harvey-morning-show/content/2026-03-05-midterm-election-season-begins-with-key-primary-races/", "tone": -0.9, "date": "2026-03-05", "country": "US", "geo": "Dallas, Texas, United States", "lat": 32.783, "lng": -96.807, "type": "POLITICAL", "mentions": 6}, {"title": "ANGLICAN \u2014 BISHOP", "url": "https://www.canberratimes.com.au/story/9191854/conservative-anglicans-back-council-to-rival-archbishop/", "tone": -0.9, "date": "2026-03-05", "country": "AS", "geo": "Australia", "lat": -25.0, "lng": 135.0, "type": "POLITICAL", "mentions": 3}, {"title": "VOTER", "url": "https://1011thebeat.iheart.com/featured/steve-harvey-morning-show/content/2026-03-05-midterm-election-season-begins-with-key-primary-races/", "tone": -0.9, "date": "2026-03-05", "country": "US", "geo": "Dallas, Texas, United States", "lat": 32.783, "lng": -96.807, "type": "POLITICAL", "mentions": 6}, {"title": "VOTER \u2014 CONGRESS", "url": "https://1011thebeat.iheart.com/featured/steve-harvey-morning-show/content/2026-03-05-midterm-election-season-begins-with-key-primary-races/", "tone": -0.9, "date": "2026-03-05", "country": "US", "geo": "Dallas County, Texas, United States", "lat": 32.767, "lng": -96.784, "type": "POLITICAL", "mentions": 10}, {"title": " \u2014 MOSCOW", "url": "https://english.news.cn/20260305/1a55736aa07a4bbc9923ccac5bef0485/c.html", "tone": -0.8, "date": "2026-03-05", "country": "RS", "geo": "Moscow, Moskva, Russia", "lat": 55.752, "lng": 37.616, "type": "POLITICAL", "mentions": 6}, {"title": "GENEVA \u2014 RUSSIA", "url": "https://english.news.cn/20260305/1a55736aa07a4bbc9923ccac5bef0485/c.html", "tone": -0.8, "date": "2026-03-05", "country": "SZ", "geo": "Geneva, Gen\u00c3\u00a8, Switzerland", "lat": 46.196, "lng": 6.148, "type": "POLITICAL", "mentions": 10}, {"title": "GENEVA \u2014 UKRAINE", "url": "https://english.news.cn/20260305/1a55736aa07a4bbc9923ccac5bef0485/c.html", "tone": -0.8, "date": "2026-03-05", "country": "SZ", "geo": "Geneva, Gen\u00c3\u00a8, Switzerland", "lat": 46.196, "lng": 6.148, "type": "POLITICAL", "mentions": 4}, {"title": "GENEVA \u2014 UKRAINE", "url": "https://english.news.cn/20260305/1a55736aa07a4bbc9923ccac5bef0485/c.html", "tone": -0.8, "date": "2026-03-05", "country": "SZ", "geo": "Geneva, Gen\u00c3\u00a8, Switzerland", "lat": 46.196, "lng": 6.148, "type": "POLITICAL", "mentions": 6}, {"title": "GENEVA \u2014 UNITED STATES", "url": "https://english.news.cn/20260305/1a55736aa07a4bbc9923ccac5bef0485/c.html", "tone": -0.8, "date": "2026-03-05", "country": "SZ", "geo": "Geneva, Gen\u00c3\u00a8, Switzerland", "lat": 46.196, "lng": 6.148, "type": "POLITICAL", "mentions": 8}, {"title": " \u2014 GOOGLE", "url": "https://www.computerweekly.com/news/366639689/Weighing-the-trade-offs-of-neoclouds-and-sovereign-clouds", "tone": -0.7, "date": "2026-03-05", "country": "AS", "geo": "Australia", "lat": -25.0, "lng": 135.0, "type": "POLITICAL", "mentions": 5}, {"title": " \u2014 GOOGLE", "url": "https://www.computerweekly.com/news/366639689/Weighing-the-trade-offs-of-neoclouds-and-sovereign-clouds", "tone": -0.7, "date": "2026-03-05", "country": "AS", "geo": "Australia", "lat": -25.0, "lng": 135.0, "type": "POLITICAL", "mentions": 1}, {"title": " \u2014 GOOGLE", "url": "https://www.computerweekly.com/news/366639689/Weighing-the-trade-offs-of-neoclouds-and-sovereign-clouds", "tone": -0.7, "date": "2026-03-05", "country": "KS", "geo": "South Korea", "lat": 37.0, "lng": 127.5, "type": "POLITICAL", "mentions": 4}, {"title": "AUSTRALIA \u2014 MICROSOFT", "url": "https://www.computerweekly.com/news/366639689/Weighing-the-trade-offs-of-neoclouds-and-sovereign-clouds", "tone": -0.7, "date": "2026-03-05", "country": "KS", "geo": "South Korea", "lat": 37.0, "lng": 127.5, "type": "POLITICAL", "mentions": 10}, {"title": "INDUSTRY \u2014 GOVERNMENT", "url": "https://www.computerweekly.com/news/366639706/Government-wants-to-build-digital-ID-system-in-house", "tone": -0.7, "date": "2026-03-05", "country": "UK", "geo": "Whitehall, Orkney Islands, United Kingdom", "lat": 59.15, "lng": -2.617, "type": "POLITICAL", "mentions": 10}, {"title": "PRAGUE \u2014 PRIME MINISTER", "url": "https://abcnews.com/International/wireStory/czech-lawmakers-vote-lifting-immunity-populist-leader-babi-130781640", "tone": -0.7, "date": "2026-03-05", "country": "UP", "geo": "Ukraine", "lat": 49.0, "lng": 32.0, "type": "POLITICAL", "mentions": 6}, {"title": "UNITED KINGDOM", "url": "https://www.computerweekly.com/news/366639706/Government-wants-to-build-digital-ID-system-in-house", "tone": -0.7, "date": "2026-03-05", "country": "UK", "geo": "Whitehall, Orkney Islands, United Kingdom", "lat": 59.15, "lng": -2.617, "type": "POLITICAL", "mentions": 4}, {"title": " \u2014 AEROSPACE", "url": "https://english.news.cn/20260305/81c04d462f9d46ef9550142dbf0961cb/c.html", "tone": -0.6, "date": "2026-03-05", "country": "FR", "geo": "Paris, France (general), France", "lat": 48.867, "lng": 2.333, "type": "POLITICAL", "mentions": 10}, {"title": "BUSINESS \u2014 UNITED STATES", "url": "https://www.akron.com/articles/county-council-hears-financial-update/", "tone": -0.5, "date": "2026-03-05", "country": "US", "geo": "City Of Akron, Ohio, United States", "lat": 41.075, "lng": -81.518, "type": "POLITICAL", "mentions": 4}, {"title": "BUSINESS \u2014 UNITED STATES", "url": "https://www.akron.com/articles/county-council-hears-financial-update/", "tone": -0.5, "date": "2026-03-05", "country": "US", "geo": "City Of Barberton, Ohio, United States", "lat": 41.015, "lng": -81.606, "type": "POLITICAL", "mentions": 4}, {"title": "EUROPEAN", "url": "https://www.lrt.lt/en/news-in-english/19/2858230/lithuania-backs-us-nuclear-deterrent-as-france-proposes-european-umbrella", "tone": -0.5, "date": "2026-03-05", "country": "FR", "geo": "France", "lat": 46.0, "lng": 2.0, "type": "CONFLICT", "mentions": 3}, {"title": "MALE", "url": "https://www.thejournal.ie/thai-massage-therapist-connemara-6975690-Mar2026/", "tone": -0.4, "date": "2026-02-03", "country": "EI", "geo": "Letterfrack, Galway, Ireland", "lat": 53.55, "lng": -9.95, "type": "POLITICAL", "mentions": 6}, {"title": "THAILAND \u2014 MALE", "url": "https://www.thejournal.ie/thai-massage-therapist-connemara-6975690-Mar2026/", "tone": -0.4, "date": "2026-02-03", "country": "EI", "geo": "Letterfrack, Galway, Ireland", "lat": 53.55, "lng": -9.95, "type": "POLITICAL", "mentions": 4}, {"title": " \u2014 UNITED STATES", "url": "https://techcrunch.com/2026/03/05/how-1000-customer-calls-shaped-a-breakout-enterprise-ai-startup/", "tone": -0.4, "date": "2026-03-05", "country": "US", "geo": "Stanford, California, United States", "lat": 37.424, "lng": -122.166, "type": "POLITICAL", "mentions": 4}, {"title": "CHINA", "url": "https://www.upi.com/Top_News/World-News/2026/03/05/arctic-martitime-crossroads-China-United-States/5761772712392/", "tone": -0.4, "date": "2026-03-05", "country": "CH", "geo": "Beijing, Beijing, China", "lat": 39.929, "lng": 116.388, "type": "POLITICAL", "mentions": 2}, {"title": "SCHOLAR \u2014 CHINA", "url": "https://www.upi.com/Top_News/World-News/2026/03/05/arctic-martitime-crossroads-China-United-States/5761772712392/", "tone": -0.4, "date": "2026-03-05", "country": "RS", "geo": "Moscow, Moskva, Russia", "lat": 55.752, "lng": 37.616, "type": "POLITICAL", "mentions": 8}, {"title": " \u2014 PRINCE", "url": "https://www.geo.tv/latest/654196-prince-harry-absent-from-emotional-family-event-after-royal-olive-branch", "tone": -0.3, "date": "2026-03-05", "country": "JO", "geo": "Jordan", "lat": 31.0, "lng": 36.0, "type": "POLITICAL", "mentions": 6}, {"title": " \u2014 UNITED STATES", "url": "https://www.yahoo.com/news/articles/utah-midterms-set-where-republican-131218191.html", "tone": -0.3, "date": "2026-03-05", "country": "US", "geo": "Deseret, Utah, United States", "lat": 39.287, "lng": -112.653, "type": "POLITICAL", "mentions": 3}, {"title": " \u2014 UNITED STATES", "url": "https://www.yahoo.com/news/articles/utah-midterms-set-where-republican-131218191.html", "tone": -0.3, "date": "2026-03-05", "country": "US", "geo": "Utah, United States", "lat": 40.114, "lng": -111.854, "type": "POLITICAL", "mentions": 3}, {"title": "CONSTITUENT \u2014 UNITED STATES", "url": "https://www.yahoo.com/news/articles/utah-midterms-set-where-republican-131218191.html", "tone": -0.3, "date": "2026-03-05", "country": "US", "geo": "Utah, United States", "lat": 40.114, "lng": -111.854, "type": "POLITICAL", "mentions": 5}, {"title": "COMMUNITY", "url": "https://cyprus-mail.com/2026/03/05/larnaca-water-supply-reduction-shifts-attention-to-bathroom-efficiency", "tone": -0.1, "date": "2026-03-05", "country": "CY", "geo": "Larnaca, Larnaca, Cyprus", "lat": 34.917, "lng": 33.629, "type": "POLITICAL", "mentions": 10}, {"title": "COMMUNITY \u2014 ADMINISTRATION", "url": "https://www.stlmag.com/news/nahuel-fefer-broken-city-hall-merger/", "tone": -0.1, "date": "2026-03-05", "country": "AR", "geo": "Argentina", "lat": -34.0, "lng": -64.0, "type": "POLITICAL", "mentions": 2}, {"title": "COMMUNITY \u2014 ADMINISTRATION", "url": "https://www.stlmag.com/news/nahuel-fefer-broken-city-hall-merger/", "tone": -0.1, "date": "2026-03-05", "country": "AR", "geo": "Argentina", "lat": -34.0, "lng": -64.0, "type": "POLITICAL", "mentions": 2}, {"title": "CYPRUS", "url": "https://cyprus-mail.com/2026/03/05/larnaca-water-supply-reduction-shifts-attention-to-bathroom-efficiency", "tone": -0.1, "date": "2026-03-05", "country": "CY", "geo": "Larnaca, Larnaca, Cyprus", "lat": 34.917, "lng": 33.629, "type": "POLITICAL", "mentions": 10}, {"title": "UNIVERSITY", "url": "https://www.stlmag.com/news/nahuel-fefer-broken-city-hall-merger/", "tone": -0.1, "date": "2026-03-05", "country": "US", "geo": "Boston, Massachusetts, United States", "lat": 42.358, "lng": -71.06, "type": "POLITICAL", "mentions": 4}, {"title": "PHNOM PENH", "url": "https://english.news.cn/20260305/554c4220821444f1be3a6ca78cef836c/c.html", "tone": 0.0, "date": "2025-03-05", "country": "CB", "geo": "Cambodia", "lat": 13.0, "lng": 105.0, "type": "POLITICAL", "mentions": 5}, {"title": " \u2014 CYPRUS", "url": "https://cyprus-mail.com/2026/03/05/christodoulides-mitsotakis-discuss-regional-hostilities", "tone": 0.0, "date": "2026-03-05", "country": "CY", "geo": "Cyprus", "lat": 35.0, "lng": 33.0, "type": "POLITICAL", "mentions": 10}, {"title": " \u2014 BRITAIN", "url": "https://cyprus-mail.com/2026/03/05/mi6-chief-to-meet-christodoulides-as-cyprus-steps-up-security-consultations", "tone": 0.0, "date": "2026-03-05", "country": "UK", "geo": "London, London, City of, United Kingdom", "lat": 51.5, "lng": -0.117, "type": "POLITICAL", "mentions": 6}, {"title": " \u2014 THE OPPOSITION", "url": "https://cyprus-mail.com/2026/03/05/joy-of-uks-iranian-diaspora-turning-to-fear-as-conflict-rocks-homeland", "tone": 0.0, "date": "2026-03-05", "country": "IR", "geo": "Tehran, Tehran, Iran", "lat": 35.75, "lng": 51.515, "type": "POLITICAL", "mentions": 3}, {"title": "DUBAI \u2014 CHINESE", "url": "https://www.thestar.com.my/lifestyle/entertainment/2026/03/05/chinese-star-dilraba-dilmurat-reportedly-arrived-in-malaysia-after-being-stranded-in-dubai-amid-middle-east-conflict", "tone": 0.0, "date": "2026-03-05", "country": "CH", "geo": "China", "lat": 35.0, "lng": 105.0, "type": "POLITICAL", "mentions": 10}, {"title": "DUBAI \u2014 CHINESE", "url": "https://www.thestar.com.my/lifestyle/entertainment/2026/03/05/chinese-star-dilraba-dilmurat-reportedly-arrived-in-malaysia-after-being-stranded-in-dubai-amid-middle-east-conflict", "tone": 0.0, "date": "2026-03-05", "country": "AE", "geo": "Dubai, Dubayy, United Arab Emirates", "lat": 25.252, "lng": 55.28, "type": "POLITICAL", "mentions": 6}, {"title": "DUBAI \u2014 CHINESE", "url": "https://www.thestar.com.my/lifestyle/entertainment/2026/03/05/chinese-star-dilraba-dilmurat-reportedly-arrived-in-malaysia-after-being-stranded-in-dubai-amid-middle-east-conflict", "tone": 0.0, "date": "2026-03-05", "country": "CH", "geo": "China", "lat": 35.0, "lng": 105.0, "type": "POLITICAL", "mentions": 4}, {"title": "BELARUS \u2014 CONVICTS", "url": "https://www.sb.by/en/lukashenko-signed-decree-pardoning-18-convicted-persons-most-of-whom-are-women.html", "tone": 0.0, "date": "2026-03-05", "country": "BO", "geo": "Belarus", "lat": 53.0, "lng": 28.0, "type": "POLITICAL", "mentions": 4}, {"title": "BELARUS \u2014 CONVICTS", "url": "https://www.sb.by/en/lukashenko-signed-decree-pardoning-18-convicted-persons-most-of-whom-are-women.html", "tone": 0.0, "date": "2026-03-05", "country": "BO", "geo": "Belarus", "lat": 53.0, "lng": 28.0, "type": "POLITICAL", "mentions": 4},